,world_rank,university_name,country,teaching,international,research,citations,income,num_students,student_staff_ratio,international_students,female_ratio,latitude,longitude
0,1,California Institute of Technology,United States of America,95.6,64.0,97.6,99.8,97.8,2243.0,6.9,27.0,33.0,34.13701375,-118.1252882487961
1,2,University of Oxford,United Kingdom,86.5,94.4,98.9,98.8,73.1,19919.0,11.6,34.0,46.0,51.75254605,-1.2143299631547007
2,3,Stanford University,United States of America,92.5,76.3,96.2,99.9,63.3,15596.0,7.8,22.0,42.0,37.431313849999995,-122.16936535498309
3,4,University of Cambridge,United Kingdom,88.2,91.5,96.7,97.0,55.0,18812.0,11.8,34.0,46.0,52.2006233,0.1104744
4,5,Massachusetts Institute of Technology,United States of America,89.4,84.0,88.6,99.7,95.4,11074.0,9.0,33.0,37.0,42.3582529,-71.0966272383055
5,6,Harvard University,United States of America,83.6,77.2,99.0,99.8,45.2,20152.0,8.9,25.0,37.0,42.36790855,-71.12678237443698
6,7,Princeton University,United States of America,85.1,78.5,91.9,99.3,52.1,7929.0,8.4,27.0,45.0,40.33867515,-74.65836549131683
7,8,Imperial College London,United Kingdom,83.3,96.0,88.5,96.7,53.7,15060.0,11.7,51.0,37.0,51.4989595,-0.17564125978794498
9,10,University of Chicago,United States of America,85.7,65.0,88.9,99.2,36.6,14221.0,6.9,21.0,42.0,41.79139685,-87.60084387193544
10,11,Johns Hopkins University,United States of America,77.6,70.0,90.4,98.2,100.0,15128.0,3.6,23.0,50.0,39.33020225,-76.62185357858337
11,12,Yale University,United States of America,86.5,64.3,87.8,97.2,43.3,11751.0,4.4,20.0,50.0,41.25713055,-72.98966960152231
12,13,"University of California, Berkeley",United States of America,80.4,61.9,91.1,99.7,47.9,36186.0,16.4,15.0,50.0,37.8753497,-122.23963364918777
13,14,University College London,United Kingdom,78.1,94.4,91.0,94.2,40.5,26607.0,10.7,46.0,56.0,51.52420305,-0.13300072425929543
14,15,Columbia University,United States of America,85.9,73.5,82.2,98.1,40.5,25055.0,5.9,28.0,56.0,40.8176657,-73.95851439291599
15,16,"University of California, Los Angeles",United States of America,80.8,56.4,88.6,98.5,47.9,38206.0,10.3,15.0,52.0,34.070877749999994,-118.44685070595054
16,17,University of Pennsylvania,United States of America,82.0,49.5,86.9,98.6,47.9,20376.0,6.5,20.0,51.0,39.9493382,-75.18964402998125
17,18,Cornell University,United States of America,77.9,63.9,86.1,97.2,33.7,21424.0,10.2,19.0,48.0,42.450550699999994,-76.47835129554275
18,19,University of Toronto,Canada,75.9,77.8,89.3,90.9,49.1,66198.0,19.5,15.0,48.0,43.663461999999996,-79.39775966248058
19,20,Duke University,United States of America,76.0,56.5,78.0,99.0,100.0,15172.0,4.8,17.0,49.0,36.00015569999999,-78.94422972195878
20,21,University of Michigan,United States of America,76.8,53.7,85.2,94.4,56.3,41786.0,9.0,16.0,48.0,42.2942142,-83.71003893509601
21,22,Carnegie Mellon University,United States of America,67.4,57.1,88.8,99.1,57.5,11885.0,13.1,35.0,39.0,40.444189699999995,-79.94271918393466
22,23,London School of Economics and Political Science,United Kingdom,69.8,93.6,80.6,94.3,32.2,11885.0,13.1,35.0,39.0,51.5143114,-0.11678105481073275
23,24,University of Edinburgh,United Kingdom,68.6,89.8,77.2,96.3,36.1,25774.0,14.1,36.0,58.0,55.94407645,-3.1883735563964555
24,25,Northwestern University,United States of America,69.8,53.9,78.4,96.5,81.2,18334.0,13.8,15.0,48.0,42.0551164,-87.67581113482166
25,26,National University of Singapore,Singapore,71.7,96.2,84.5,79.4,49.8,31592.0,15.5,34.0,49.0,1.2962018,103.77689943784759
26,27,King’s College London,United Kingdom,64.5,93.8,75.8,93.8,40.1,21394.0,11.4,37.0,61.0,51.5060001,-0.1121582948025203
27,28,Karolinska Institute,Sweden,60.6,73.1,81.1,92.2,75.8,7774.0,11.5,22.0,70.0,59.219549549999996,17.94005487275674
28,29,LMU Munich,Germany,70.5,62.8,77.4,85.7,100.0,35691.0,15.5,13.0,62.0,48.13005,11.564966405053084
29,30,New York University,United States of America,74.7,49.3,72.3,95.3,30.4,42056.0,6.8,19.0,55.0,40.72925325,-73.99625393609625
30,31,École Polytechnique Fédérale de Lausanne,Switzerland,61.3,98.6,67.5,94.6,65.4,9666.0,10.5,54.0,27.0,46.518659400000004,6.566561505148001
31,32,University of Washington,United States of America,67.1,51.2,70.0,98.6,43.1,44020.0,11.8,13.0,53.0,47.6543466,-122.30806059473039
32,33,University of Melbourne,Australia,62.0,87.1,75.5,86.6,64.6,40128.0,23.7,35.0,55.0,-37.7970796,144.96130134414312
33,34,University of British Columbia,Canada,60.2,90.5,73.2,91.5,42.6,50152.0,17.6,25.0,54.0,49.258393749999996,-123.24658161001929
34,35,KU Leuven,Belgium,59.9,68.6,76.9,87.3,100.0,42503.0,41.9,18.0,54.0,50.80571285,3.2915374489139757
35,36,University of Illinois at Urbana-Champaign,United States of America,64.5,45.8,81.2,86.8,52.8,42727.0,18.7,20.0,47.0,40.09911835,-88.23851575614376
36,37,Heidelberg University,Germany,68.8,62.8,69.6,88.2,68.2,28881.0,24.5,17.0,55.0,41.11442525,-83.16686666639325
37,38,McGill University,Canada,66.1,85.5,72.1,78.9,40.3,31326.0,13.7,23.0,56.0,45.50691775,-73.5791162596496
38,39,"University of California, San Diego",United States of America,56.9,42.9,69.8,98.7,56.7,27233.0,6.5,11.0,48.0,32.87924375,-117.23112468377349
39,39,"University of California, Santa Barbara",United States of America,52.6,61.5,66.0,99.2,90.4,22020.0,27.3,11.0,52.0,34.414602450000004,-119.84581004701371
40,41,Georgia Institute of Technology,United States of America,57.8,71.5,72.7,86.0,73.7,19967.0,20.1,26.0,31.0,33.776033,-84.39884086001581
41,42,Peking University,China,77.8,49.2,72.4,69.1,100.0,40148.0,8.3,14.0,31.0,39.99171495,116.30393496863539
42,43,University of Tokyo,Japan,81.4,30.3,83.0,60.9,50.8,26199.0,5.7,10.0,31.0,35.71171565,139.76374569517452
43,44,"University of California, Davis",United States of America,60.1,58.4,72.7,84.3,57.3,35364.0,13.9,13.0,54.0,38.5217429,-121.7522493507393
44,44,University of Hong Kong,Hong Kong,64.6,99.5,72.8,70.1,53.7,19835.0,17.6,38.0,53.0,54.0856448,13.389089
45,46,University of Texas at Austin,United States of America,59.3,31.7,69.7,92.2,63.1,49427.0,17.4,9.0,51.0,30.2852198,-97.73389272663796
46,47,Tsinghua University,China,73.3,39.5,83.0,58.8,100.0,39763.0,13.7,10.0,32.0,40.002290450000004,116.3209629696906
48,49,Humboldt University of Berlin,Germany,63.7,62.6,77.0,73.6,36.1,29987.0,52.5,16.0,56.0,52.5185813,13.39287842853558
49,50,University of Wisconsin-Madison,United States of America,65.1,33.0,68.2,86.6,48.5,39655.0,10.8,11.0,51.0,43.080274450000005,-89.43095871991434
50,51,Brown University,United States of America,62.8,57.8,55.7,96.4,31.4,8653.0,10.1,19.0,51.0,41.8186395,-71.4088008716793
51,52,Australian National University,Australia,54.7,93.3,77.3,72.3,48.0,14604.0,19.2,35.0,52.0,-35.28121335,149.11677886464528
52,53,Technical University of Munich,Germany,61.0,63.8,66.0,80.1,99.2,35565.0,31.5,20.0,33.0,1.3078539,103.7776795
53,54,École Normale Supérieure,France,70.6,85.5,47.7,87.1,37.1,2400.0,7.9,20.0,46.0,48.841707150000005,2.3447923126871286
54,55,Nanyang Technological University,Singapore,48.4,94.6,61.3,85.6,99.9,25028.0,16.2,33.0,48.0,1.3484104000000001,103.68293320728537
55,56,University of Manchester,United Kingdom,58.4,87.0,66.0,77.3,42.0,34938.0,15.3,34.0,52.0,53.4657087,-2.232734319907597
56,56,University of Sydney,Australia,54.3,84.4,68.1,77.5,72.4,41868.0,20.2,28.0,57.0,-33.89593915,151.18460132830086
57,58,University of Amsterdam,Netherlands,52.2,66.5,64.7,87.4,62.8,24570.0,14.4,11.0,53.0,52.36813335,4.889804155733945
58,59,Hong Kong University of Science and Technology,Hong Kong,49.4,80.5,66.1,82.6,68.1,11385.0,23.8,36.0,53.0,22.3386304,114.2620337
59,60,The University of Queensland,Australia,49.2,89.3,62.8,82.4,76.7,34718.0,32.7,27.0,53.0,-27.49741805,153.01316955983583
60,60,Washington University in St Louis,United States of America,54.3,44.9,55.6,99.2,33.5,12528.0,5.7,17.0,53.0,38.64724015,-90.3084017323959
61,62,Utrecht University,Netherlands,48.1,55.8,64.3,88.1,89.1,30779.0,15.4,7.0,59.0,52.08340265,5.148315067762755
62,63,University of North Carolina at Chapel Hill,United States of America,58.0,39.0,54.5,95.9,39.4,26518.0,7.3,8.0,58.0,35.90503535,-79.04775326525107
63,64,Boston University,United States of America,57.8,51.0,49.5,97.7,30.3,24789.0,8.6,17.0,58.0,42.350189400000005,-71.10070118497421
64,65,Delft University of Technology,Netherlands,55.0,84.0,73.8,61.5,100.0,15920.0,19.4,25.0,26.0,51.99882735,4.373960368154041
65,65,University of Minnesota,United States of America,53.5,35.3,61.0,88.0,98.5,46825.0,18.0,13.0,52.0,48.3785292,-92.83111715445486
66,67,Leiden University,Netherlands,50.5,64.3,63.1,85.2,49.8,21222.0,17.1,10.0,59.0,52.168633850000006,4.45966305742133
67,68,University of Southern California,United States of America,49.3,56.3,58.9,93.0,38.0,36534.0,12.9,20.0,52.0,34.0218833,-118.28586662125
68,69,University of Bristol,United Kingdom,47.6,82.4,51.6,91.2,40.0,17906.0,14.0,25.0,53.0,51.457609649999995,-2.6016348983421755
69,70,Durham University,United Kingdom,47.9,86.4,51.9,87.7,34.4,15489.0,15.7,24.0,54.0,54.5622715,-1.2963556567496446
70,71,Erasmus University Rotterdam,Netherlands,37.2,76.1,55.2,95.6,54.6,20580.0,18.9,18.0,48.0,51.9228696,4.487498568528366
72,73,Monash University,Australia,48.1,87.6,58.5,73.3,79.7,50882.0,40.5,36.0,56.0,-37.910776350000006,145.13480648790716
73,74,University of Groningen,Netherlands,43.3,63.9,56.9,84.0,92.4,24556.0,25.6,12.0,52.0,53.21967825,6.562514810379012
74,75,Pennsylvania State University,United States of America,50.4,40.8,61.9,80.5,56.2,44501.0,12.4,12.0,46.0,40.8025835,-77.85593833184565
75,76,University of Glasgow,United Kingdom,41.6,85.8,48.3,92.3,31.6,22616.0,16.0,29.0,57.0,55.872315349999994,-4.289219112981823
76,76,University of Helsinki,Finland,48.4,51.8,60.4,82.1,31.6,23505.0,15.1,6.0,66.0,60.175648300000006,24.953550020522073
77,78,University of Tübingen,Germany,47.0,58.2,59.8,79.3,59.2,28327.0,38.9,12.0,58.0,48.53405945,9.071244429234808
78,79,University of Pittsburgh,United States of America,50.6,33.9,50.3,92.3,39.3,26485.0,5.8,10.0,51.0,40.44415295,-79.96246095144505
79,80,University of Warwick,United Kingdom,47.4,90.3,53.1,78.2,37.7,18529.0,16.6,37.0,48.0,52.3813073,-1.5639569481637439
80,81,Uppsala University,Sweden,44.1,59.6,61.0,80.9,39.5,25266.0,18.2,12.0,57.0,59.3508628,18.033581405420463
81,82,University of Copenhagen,Denmark,49.8,83.3,42.7,86.2,45.0,27545.0,4.1,19.0,67.0,55.6970372,12.571574419652498
82,82,University of New South Wales,Australia,40.7,89.5,53.9,82.1,50.0,38309.0,25.9,33.0,47.0,-33.91759945,151.23126487290787
83,84,University of Freiburg,Germany,47.4,60.3,51.1,80.5,100.0,26467.0,31.2,16.0,52.0,46.793058,7.157106
84,85,Seoul National University,South Korea,66.5,30.9,70.5,50.0,85.4,26389.0,13.9,10.0,52.0,37.2669545,126.9844505
85,86,University of St Andrews,United Kingdom,49.7,92.3,47.3,78.8,30.6,8338.0,12.7,47.0,56.0,56.3398198,-2.8117937053149826
86,87,Vanderbilt University,United States of America,47.8,29.1,44.2,95.7,63.2,12161.0,3.6,10.0,52.0,36.14380105,-86.80281889095295
87,88,Kyoto University,Japan,70.6,26.1,69.3,46.6,79.0,22809.0,5.6,7.0,52.0,35.02704665,135.78143727667532
88,88,Maastricht University,Netherlands,37.5,95.5,47.7,82.7,95.4,15626.0,18.9,48.0,56.0,50.84720265,5.685941396293034
89,90,Emory University,United States of America,48.3,51.0,37.1,96.7,48.9,12338.0,4.5,18.0,56.0,33.80045465,-84.31723780466274
90,90,Lund University,Sweden,39.7,74.1,53.6,81.3,70.4,28251.0,11.5,15.0,56.0,55.7126504,13.210758659399971
91,90,Ohio State University,United States of America,51.6,53.0,46.6,83.2,53.1,51462.0,13.4,12.0,49.0,40.00570905,-83.02866465596318
92,93,University of Exeter,United Kingdom,39.4,87.3,40.0,94.3,31.9,17755.0,18.8,28.0,54.0,50.7369302,-3.536476717021671
93,94,University of Bonn,Germany,45.1,63.6,47.5,85.3,31.9,32474.0,70.4,13.0,55.0,50.7338124,7.1022465
94,94,Georgetown University,United States of America,54.4,52.7,39.3,82.5,80.7,15408.0,8.5,14.0,53.0,38.90893925,-77.07457962060826
95,94,McMaster University,Canada,39.8,76.1,44.8,84.9,88.0,23823.0,19.3,15.0,53.0,43.263939699999995,-79.917825231868
96,97,University of Sheffield,United Kingdom,42.4,81.9,48.8,80.1,43.4,23311.0,15.5,31.0,50.0,53.3815327,-1.4806602
97,98,Queen Mary University of London,United Kingdom,34.1,93.5,41.3,93.3,36.8,14260.0,14.0,40.0,52.0,51.5247272,-0.03931034663016243
98,99,University of Göttingen,Germany,49.3,56.4,54.5,72.7,31.8,25581.0,25.6,12.0,51.0,51.5411003,9.948200846079496
99,99,Michigan State University,United States of America,47.3,56.4,52.6,76.8,32.2,44750.0,15.7,15.0,51.0,42.7024238,-84.48032837503001
100,101,University of Basel,Switzerland,39.5,94.7,33.1,88.3,99.9,12551.0,17.3,24.0,54.0,47.5612651,7.5752961
101,101,École Polytechnique,France,53.5,92.8,44.6,64.7,82.3,2429.0,4.8,30.0,18.0,34.6742703,-1.92086
102,101,Rice University,United States of America,37.9,66.6,35.1,99.7,41.7,6333.0,9.0,26.0,44.0,29.716791450000002,-95.40478113393792
103,104,Dartmouth College,United States of America,50.7,38.3,35.8,93.3,40.8,6178.0,6.6,16.0,47.0,,
104,104,University of Zurich,Switzerland,49.5,90.4,31.5,85.4,44.0,26583.0,6.5,19.0,57.0,,
105,106,Aarhus University,Denmark,36.9,76.8,50.7,79.8,68.3,23895.0,13.6,14.0,54.0,,
106,106,"University of California, Irvine",United States of America,39.9,59.2,41.8,91.6,48.9,26614.0,16.1,16.0,52.0,,
107,106,University of Mannheim,Germany,34.5,64.6,47.7,86.9,85.3,11761.0,85.8,15.0,55.0,,
108,108,University of Notre Dame,United States of America,47.6,47.6,48.1,81.7,33.7,11829.0,13.8,10.0,44.0,,
109,109,University of Western Australia,Australia,33.4,92.6,46.1,83.6,64.5,20851.0,20.7,27.0,50.0,,
110,110,RWTH Aachen University,Germany,49.4,54.1,56.3,63.2,98.1,37917.0,27.6,16.0,31.0,,
111,110,University of Southampton,United Kingdom,39.8,88.4,43.6,82.0,37.5,20925.0,13.5,29.0,53.0,,
112,112,Scuola Normale Superiore di Pisa,Italy,54.2,46.3,53.1,67.2,52.0,462.0,16.5,5.0,28.0,,
113,113,University of Montreal,Canada,46.3,84.2,45.5,69.6,92.6,38264.0,20.3,25.0,57.0,,
114,113,Pierre and Marie Curie University,France,52.8,74.1,32.7,82.9,37.4,27862.0,8.7,18.0,48.0,,
115,113,Purdue University,United States of America,50.2,66.4,57.7,63.2,37.4,39256.0,18.1,22.0,42.0,,
116,116,Pohang University of Science and Technology,South Korea,49.1,33.7,47.1,76.7,100.0,3055.0,10.1,4.0,20.0,,
117,117,"University of Maryland, College Park",United States of America,45.0,43.5,42.1,88.2,32.3,31331.0,8.4,9.0,48.0,,
118,118,Ghent University,Belgium,42.1,54.2,54.5,71.2,88.3,32166.0,34.1,9.0,57.0,,
119,119,University of Birmingham,United Kingdom,39.4,82.0,41.8,82.7,34.7,25295.0,16.4,23.0,54.0,,
120,120,University of Bern,Switzerland,40.0,83.7,42.5,76.6,82.9,14708.0,22.5,14.0,54.0,,
121,120,University of Cape Town,South Africa,34.9,80.2,38.7,85.6,92.7,20040.0,12.1,18.0,53.0,,
122,120,University of Florida,United States of America,51.8,33.3,56.8,67.7,92.7,50095.0,18.7,9.0,54.0,,
123,123,University of Erlangen-Nuremberg,Germany,51.7,47.0,39.7,75.2,99.4,36146.0,53.9,9.0,49.0,,
124,123,"Rutgers, the State University of New Jersey",United States of America,43.9,34.7,55.7,75.4,35.9,37032.0,17.3,8.0,51.0,,
125,125,University of Münster,Germany,40.3,46.3,44.1,85.6,58.2,39838.0,46.1,8.0,53.0,,
126,125,Radboud University Nijmegen,Netherlands,34.3,60.9,48.5,84.9,39.2,17713.0,13.0,10.0,58.0,,
127,127,University of Colorado Boulder,United States of America,39.7,36.6,37.6,96.4,35.7,29325.0,16.1,8.0,45.0,,
128,127,Tufts University,United States of America,45.2,49.4,33.3,90.1,60.7,10410.0,10.0,14.0,54.0,,
129,129,"Royal Holloway, University of London",United Kingdom,35.1,92.7,33.2,91.2,34.4,8747.0,15.9,37.0,57.0,,
130,130,Lancaster University,United Kingdom,34.0,87.0,41.4,85.3,33.6,11512.0,14.9,33.0,52.0,,
131,131,University of Geneva,Switzerland,34.9,98.5,40.5,78.5,72.4,15668.0,15.0,39.0,61.0,,
132,131,University of York,United Kingdom,41.9,83.5,46.3,73.1,31.1,15668.0,15.0,39.0,61.0,,
133,133,Case Western Reserve University,United States of America,46.1,40.5,33.2,92.0,34.1,9259.0,6.4,17.0,48.0,,
134,133,University of Leeds,United Kingdom,43.7,77.4,39.0,79.2,36.7,27703.0,14.7,21.0,58.0,,
135,135,University of Oslo,Norway,43.3,68.2,44.7,75.5,38.3,27139.0,18.8,18.0,58.0,,
136,136,Stockholm University,Sweden,34.1,48.5,51.2,82.5,31.1,31715.0,23.7,8.0,62.0,,
137,137,University of Alberta,Canada,46.4,80.7,48.1,63.6,47.4,36299.0,21.6,23.0,55.0,,
138,138,Chinese University of Hong Kong,Hong Kong,41.5,81.1,48.5,68.4,37.5,17916.0,10.2,22.0,53.0,,
139,138,Karlsruhe Institute of Technology,Germany,37.7,56.7,47.5,73.8,99.5,25294.0,24.6,16.0,26.0,,
140,140,University of Sussex,United Kingdom,33.4,88.3,37.2,86.1,30.6,12001.0,17.4,35.0,54.0,,
141,141,University of Massachusetts,United States of America,40.2,48.9,36.3,88.1,52.2,56959.0,13.0,11.0,49.0,,
142,142,University of Vienna,Austria,40.8,92.6,50.5,63.6,30.2,34651.0,20.5,25.0,67.0,,
143,143,University of Nottingham,United Kingdom,40.3,80.6,39.0,77.5,39.8,30144.0,15.0,27.0,54.0,,
144,144,"University of California, Santa Cruz",United States of America,31.1,45.6,34.2,99.9,36.1,17404.0,22.7,1.0,53.0,,
145,144,University of Lausanne,Switzerland,30.9,89.2,45.6,76.2,56.0,11964.0,13.1,22.0,53.0,,
146,146,Autonomous University of Barcelona,Spain,40.3,50.3,40.0,83.8,34.9,30538.0,12.3,10.0,59.0,,
147,147,University of Virginia,United States of America,38.8,43.4,37.5,87.3,37.9,23845.0,10.2,12.0,52.0,,
148,148,Korea Advanced Institute of Science and Technology (KAIST),South Korea,43.3,33.9,40.5,75.9,100.0,9027.0,10.0,9.0,20.0,,
149,149,University of Adelaide,Australia,32.8,85.1,43.2,72.4,79.3,20771.0,30.1,26.0,48.0,,
150,149,University of East Anglia,United Kingdom,31.9,83.5,28.7,92.7,28.5,14992.0,14.7,28.0,58.0,,
151,149,University of Twente,Netherlands,34.1,80.1,45.6,68.8,91.2,6631.0,12.0,26.0,37.0,,
152,153,Sungkyunkwan University (SKKU),South Korea,51.4,36.7,53.5,53.8,97.5,24365.0,20.3,9.0,39.0,,
153,154,VU University Amsterdam,Netherlands,28.4,54.9,37.1,90.7,60.1,23280.0,16.3,6.0,56.0,,
154,155,KTH Royal Institute of Technology,Sweden,39.0,84.4,44.3,63.9,78.1,12062.0,14.6,21.0,30.0,,
155,156,University of Cologne,Germany,42.2,53.1,38.0,75.0,68.5,43280.0,43.4,11.0,60.0,,
156,157,University of Liverpool,United Kingdom,32.8,85.4,30.9,85.9,36.6,18815.0,13.6,30.0,52.0,,
157,158,TU Dresden,Germany,41.4,47.7,45.8,66.1,99.7,35487.0,37.4,12.0,42.0,,
158,158,University of Rochester,United States of America,39.7,55.8,27.9,89.0,37.0,9390.0,4.5,26.0,49.0,,
159,160,Trinity College Dublin,Republic of Ireland,41.9,90.5,30.8,75.8,28.0,15521.0,18.0,25.0,57.0,,
160,161,Lomonosov Moscow State University,Russian Federation,75.4,57.8,66.7,8.6,95.7,30822.0,7.7,20.0,43.0,,
161,161,University of Miami,United States of America,41.7,64.0,22.3,90.1,35.5,15286.0,5.7,14.0,50.0,,
162,163,University of Arizona,United States of America,38.7,38.6,41.8,79.5,32.4,36429.0,12.7,8.0,52.0,,
163,164,Pompeu Fabra University,Spain,32.9,63.3,28.0,90.7,37.2,10901.0,18.3,13.0,59.0,,
164,164,University of Reading,United Kingdom,39.3,85.1,37.3,69.9,34.2,12050.0,14.8,28.0,55.0,,
165,164,Yeshiva University,United States of America,44.8,28.5,23.7,92.8,34.2,6753.0,5.5,7.0,53.0,,
166,167,"University of California, Riverside",United States of America,27.5,59.5,33.3,91.2,42.5,20626.0,22.0,12.0,51.0,,
167,167,University of Leicester,United Kingdom,32.1,86.6,27.8,86.0,31.7,14541.0,13.4,35.0,54.0,,
168,167,National Taiwan University,Taiwan,54.1,27.7,58.0,47.3,49.6,31891.0,11.9,7.0,39.0,,
169,167,Technical University of Denmark,Denmark,37.3,85.1,29.9,77.8,50.0,9990.0,5.0,18.0,27.0,,
170,167,Université Catholique de Louvain,Belgium,38.7,74.2,40.6,68.4,51.0,28856.0,42.0,19.0,54.0,,
171,172,University of Aberdeen,United Kingdom,29.7,91.4,31.4,82.6,43.1,12938.0,15.8,33.0,54.0,,
172,172,University of Auckland,New Zealand,31.4,90.5,39.5,69.8,78.0,29787.0,18.9,28.0,54.0,,
173,174,University of Barcelona,Spain,38.5,49.2,37.4,78.9,31.1,47491.0,12.2,10.0,62.0,,
174,175,University of Konstanz,Germany,38.5,58.3,46.7,61.9,92.4,10930.0,59.1,12.0,54.0,,
175,176,Eindhoven University of Technology,Netherlands,34.3,71.3,41.0,70.7,57.3,8176.0,16.0,14.0,19.0,,
176,176,University College Dublin,Republic of Ireland,35.0,86.3,38.5,70.8,33.5,22193.0,24.5,23.0,19.0,,
177,178,Hebrew University of Jerusalem,Israel,45.8,55.6,41.4,64.6,31.9,17612.0,10.7,5.0,55.0,,
178,179,University of Waterloo,Canada,35.4,74.4,43.9,66.5,39.5,30726.0,24.2,14.0,45.0,,
179,180,University of Gothenburg,Sweden,28.5,58.3,39.8,81.8,30.3,26420.0,16.4,12.0,45.0,,
180,180,Scuola Superiore Sant’Anna,Italy,42.5,45.2,23.2,84.5,71.2,769.0,8.5,17.0,35.0,,
181,182,University of Bergen,Norway,32.5,70.0,31.5,82.4,36.2,11623.0,11.1,12.0,60.0,,
182,182,Cardiff University,United Kingdom,30.9,78.1,31.6,82.0,34.6,23347.0,13.1,23.0,57.0,,
183,182,University of Utah,United States of America,35.6,30.1,35.3,83.7,57.4,25674.0,16.9,9.0,45.0,,
184,185,Brandeis University,United States of America,28.3,47.0,25.7,97.3,38.6,5495.0,12.6,22.0,55.0,,
185,185,University of Dundee,United Kingdom,25.6,78.5,26.9,90.2,49.5,11628.0,15.3,25.0,60.0,,
186,185,University of Würzburg,Germany,34.6,50.9,35.8,79.1,47.9,26576.0,38.4,8.0,57.0,,
187,188,Paris-Sud University,France,38.7,64.2,29.0,79.8,28.8,27603.0,15.0,17.0,57.0,,
188,189,Arizona State University,United States of America,32.4,31.9,38.1,84.6,32.0,83236.0,29.9,9.0,50.0,,
189,190,University of Antwerp,Belgium,31.6,64.8,40.8,71.7,60.3,12346.0,30.3,16.0,56.0,,
190,190,Boston College,United States of America,34.1,60.0,29.3,83.3,46.8,13216.0,17.4,19.0,54.0,,
191,192,Ulm University,Germany,35.2,58.2,23.9,86.4,58.4,9187.0,11.2,10.0,47.0,,
192,193,University of Luxembourg,Luxembourg,25.0,99.8,26.7,84.8,38.1,5144.0,15.9,52.0,50.0,,
193,193,Texas A&M University,United States of America,49.4,47.8,52.4,47.1,46.4,50657.0,21.4,9.0,47.0,,
194,195,Charité - Universitätsmedizin Berlin,Germany,37.3,61.1,22.2,83.8,68.4,6853.0,6.6,16.0,64.0,,
195,196,Newcastle University,United Kingdom,30.9,84.3,27.5,81.5,34.7,20174.0,15.2,29.0,50.0,,
196,196,"St George’s, University of London",United Kingdom,25.6,69.5,18.1,100.0,37.7,2958.0,13.4,17.0,61.0,,
197,198,University of Trento,Italy,30.8,55.9,27.4,87.7,47.1,16841.0,43.2,8.0,51.0,,
198,199,Paris Diderot University – Paris 7,France,30.5,64.9,22.9,91.0,29.0,27756.0,14.8,17.0,63.0,,
199,200,Queen’s University Belfast,United Kingdom,34.1,93.4,33.3,68.9,35.7,17940.0,17.9,30.0,54.0,,
200,201,Aalborg University,Denmark,25.1,71.0,28.4,73.8,43.7,17422.0,15.9,15.0,48.0,,
201,201,"Birkbeck, University of London",United Kingdom,33.5,89.9,35.1,66.3,28.5,9454.0,17.2,38.0,55.0,,
202,201,University of Bologna,Italy,39.3,39.9,29.5,73.0,34.5,85532.0,22.9,7.0,56.0,,
203,201,University at Buffalo,United States of America,36.5,60.6,37.9,62.0,43.8,25668.0,19.0,19.0,47.0,,
204,201,University of Calgary,Canada,33.9,70.1,36.7,67.8,52.0,28341.0,16.5,17.0,53.0,,
205,201,Chalmers University of Technology,Sweden,36.6,77.6,35.3,52.2,79.5,8605.0,11.6,15.0,30.0,,
206,201,City University of Hong Kong,Hong Kong,32.1,81.6,26.7,76.8,50.1,10015.0,7.1,28.0,51.0,,
207,201,Copenhagen Business School,Denmark,19.3,88.5,26.5,79.4,35.3,18293.0,42.7,19.0,48.0,,
208,201,Dalhousie University,Canada,30.4,78.3,29.4,65.2,50.3,15064.0,14.4,18.0,55.0,,
209,201,University of Duisburg-Essen,Germany,32.3,48.5,27.0,81.3,82.3,36051.0,46.6,11.0,49.0,,
210,201,École Normale Supérieure de Lyon,France,41.6,65.6,30.0,69.0,31.7,2218.0,8.0,14.0,49.0,,
211,201,Florida State University,United States of America,38.5,41.6,40.1,64.7,32.0,41226.0,31.8,7.0,55.0,,
212,201,University of Fribourg,Switzerland,32.3,87.4,32.9,64.1,60.8,10416.0,46.9,19.0,58.0,,
213,201,Fudan University,China,44.7,38.6,30.4,61.1,28.0,32175.0,12.2,11.0,50.0,,
214,201,George Washington University,United States of America,44.7,48.1,23.5,65.7,29.5,20541.0,12.0,16.0,56.0,,
215,201,Goethe University Frankfurt,Germany,35.8,60.2,28.6,79.3,38.1,31861.0,9.3,15.0,60.0,,
216,201,University of Hawai’i at Mānoa,Unisted States of America,32.0,63.4,35.5,67.7,44.7,31861.0,9.3,15.0,60.0,,
217,201,Hong Kong Polytechnic University,Hong Kong,29.3,79.0,35.2,63.3,45.1,22064.0,25.9,26.0,51.0,,
218,201,University of Illinois at Chicago,United States of America,40.9,58.1,29.2,63.2,38.0,24313.0,9.2,17.0,53.0,,
219,201,Indiana University,United States of America,43.0,41.2,27.3,74.8,38.0,62468.0,13.6,13.0,53.0,,
220,201,University of Iowa,United States of America,41.0,32.3,26.7,73.5,54.1,27526.0,11.6,11.0,52.0,,
221,201,Johannes Gutenberg University of Mainz,Germany,34.9,53.3,21.7,72.6,70.7,35609.0,32.6,10.0,58.0,,
222,201,Joseph Fourier University,France,34.2,58.6,21.6,83.2,31.6,16130.0,12.1,13.0,58.0,,
223,201,University of Kiel,Germany,32.3,49.4,20.5,89.5,31.6,24444.0,23.8,8.0,53.0,,
224,201,Laval University,Canada,37.5,63.8,31.7,62.2,57.5,27227.0,16.2,12.0,53.0,,
225,201,Medical University of Vienna,Austria,26.6,81.7,14.6,89.1,33.9,7426.0,2.9,28.0,50.0,,
226,201,Northeastern University,United States of America,35.5,58.7,20.6,84.0,32.9,18539.0,15.1,26.0,50.0,,
227,201,Oregon Health and Science University,United States of America,27.8,21.4,15.7,96.0,44.6,2838.0,1.1,3.0,65.0,,
228,201,University of Otago,New Zealand,30.7,89.9,30.5,74.9,31.5,18600.0,20.3,21.0,57.0,,
229,201,University of Ottawa,Canada,37.1,69.9,36.7,61.5,41.5,36733.0,26.3,15.0,60.0,,
230,201,Paris Descartes University,France,24.6,49.1,28.8,83.3,29.0,34691.0,26.9,15.0,63.0,,
231,201,Peter the Great St Petersburg Polytechnic University,Russian Federation,30.8,29.6,17.8,97.4,42.5,17155.0,7.2,8.0,40.0,,
232,201,Polytechnic University of Milan,Italy,30.1,48.8,31.7,76.3,66.3,30025.0,22.2,12.0,34.0,,
233,201,Royal Veterinary College,United Kingdom,26.0,81.7,27.8,74.9,45.5,1819.0,10.9,18.0,77.0,,
234,201,Rush University,United States of America,37.7,21.8,17.4,88.9,45.4,1855.0,2.1,5.0,71.0,,
235,201,Sapienza University of Rome,Italy,38.0,34.7,37.3,61.5,32.6,120986.0,32.3,7.0,59.0,,
236,201,University of Science and Technology of China,China,46.7,21.4,36.6,67.2,80.3,14290.0,7.9,2.0,59.0,,
237,201,University of South Florida,United States of America,24.8,45.1,35.7,73.4,99.8,31424.0,21.5,10.0,59.0,,
238,201,Stony Brook University,United States of America,32.6,53.2,22.0,83.0,33.4,21908.0,10.9,24.0,50.0,,
239,201,University of Stuttgart,Germany,40.0,52.7,44.5,55.7,99.8,24099.0,45.4,20.0,31.0,,
240,201,Swedish University of Agricultural Sciences,Sweden,31.5,40.1,32.8,68.1,99.9,3879.0,4.6,20.0,67.0,,
241,201,Technical University of Darmstadt,Germany,37.1,54.4,43.2,51.1,99.1,20300.0,53.6,18.0,28.0,,
242,201,University of Technology Sydney,Australia,27.0,90.1,35.1,66.9,42.3,24519.0,44.1,31.0,53.0,,
243,201,Tel Aviv University,Israel,41.0,47.5,50.5,49.2,42.9,23977.0,24.4,4.0,53.0,,
244,201,University of Texas at Dallas,United States of America,24.3,52.3,26.7,86.8,41.8,16306.0,22.8,23.0,44.0,,
245,201,Tilburg University,Netherlands,34.1,71.6,47.1,51.5,57.4,7576.0,22.4,10.0,49.0,,
246,201,Tohoku University,Japan,45.3,29.3,42.7,49.4,74.7,17200.0,5.0,7.0,25.0,,
247,201,Tokyo Institute of Technology,Japan,45.6,31.9,47.6,42.2,70.9,9586.0,7.3,13.0,13.0,,
248,201,University of Victoria,Canada,20.6,70.2,30.0,79.0,36.6,17581.0,21.5,11.0,56.0,,
249,201,Wake Forest University,United States of America,34.6,24.2,19.5,94.8,42.5,7326.0,4.6,5.0,51.0,,
250,201,University of Western Ontario,Canada,38.6,73.6,32.4,59.0,59.7,27387.0,20.7,16.0,54.0,,
251,201,William & Mary,United States of America,38.5,26.6,17.5,85.0,29.1,7867.0,11.8,7.0,54.0,,
252,201,University of the Witwatersrand,South Africa,26.2,68.4,31.5,76.0,99.7,23321.0,18.6,9.0,56.0,,
253,251,Aalto University,Finland,31.1,65.4,32.8,62.1,61.6,16099.0,24.2,17.0,32.0,,
254,251,Aix-Marseille University,France,36.7,63.0,22.1,64.9,33.1,71749.0,45.5,13.0,61.0,,
255,251,University of Bath,United Kingdom,28.9,84.8,27.9,56.7,36.3,12830.0,18.8,30.0,46.0,,
256,251,Bayreuth University,Germany,32.2,52.6,31.2,60.1,56.4,12520.0,35.5,8.0,46.0,,
257,251,Bielefeld University,Germany,35.2,45.4,46.2,49.9,60.9,21428.0,67.8,8.0,57.0,,
258,251,University of Bordeaux,France,25.3,54.6,22.0,71.7,30.6,51239.0,19.4,12.0,58.0,,
259,251,Charles Darwin University,Australia,17.8,63.7,22.6,85.9,43.2,5570.0,25.4,15.0,67.0,,
260,251,Colorado School of Mines,United States of America,28.5,35.5,30.3,71.8,83.7,5287.0,18.2,12.0,26.0,,
261,251,Colorado State University,United States of America,31.6,34.5,33.0,59.3,41.0,26769.0,19.0,5.0,52.0,,
262,251,University of Delaware,United States of America,23.7,41.6,34.0,70.0,98.7,19262.0,15.9,10.0,56.0,,
263,251,Flinders University,Australia,21.4,64.7,25.7,69.5,41.7,15655.0,22.6,15.0,63.0,,
264,251,University of Georgia,United States of America,41.1,39.2,30.5,52.2,30.9,33119.0,19.9,7.0,57.0,,
265,251,Griffith University,Australia,22.5,81.7,25.2,66.3,34.6,30251.0,22.0,21.0,57.0,,
266,251,University of Iceland,Iceland,16.2,61.0,16.2,91.4,28.0,13960.0,25.9,8.0,66.0,,
267,251,Indian Institute of Science,India,42.7,16.4,47.2,42.4,52.4,3318.0,8.2,1.0,19.0,,
268,251,Iowa State University,United States of America,31.2,35.4,29.4,61.5,54.0,29991.0,17.4,11.0,44.0,,
269,251,James Cook University,Australia,19.0,70.4,22.8,81.4,40.7,11713.0,21.9,11.0,63.0,,
270,251,Justus Liebig University Giessen,Germany,32.9,46.8,33.9,52.9,46.4,25682.0,53.9,9.0,62.0,,
271,251,King Abdulaziz University,Saudi Arabia,23.9,93.0,11.8,76.6,73.1,35889.0,8.4,21.0,57.0,,
272,251,Koç University,Turkey,21.2,53.5,27.1,74.9,82.4,4488.0,14.6,8.0,52.0,,
273,251,Korea University,South Korea,43.9,40.2,43.4,41.8,99.8,24043.0,15.8,14.0,52.0,,
274,251,University of Liège,Belgium,29.1,69.7,36.6,46.5,98.9,20951.0,25.9,23.0,54.0,,
275,251,Linköping University,Sweden,24.2,57.7,18.9,76.8,42.1,17866.0,7.7,10.0,52.0,,
276,251,Nanjing University,China,37.2,50.4,32.2,54.2,58.6,29743.0,13.3,10.0,46.0,,
277,251,National Tsing Hua University,Taiwan,37.7,23.2,36.6,53.0,49.5,10221.0,13.5,5.0,33.0,,
278,251,"National University of Ireland, Galway",Republic of Ireland,27.3,76.5,25.4,68.5,41.9,14067.0,26.8,14.0,56.0,,
279,251,University of Newcastle,Australia,27.4,75.9,26.5,67.2,64.4,23508.0,21.9,18.0,56.0,,
280,251,North Carolina State University,United States of America,36.1,49.0,30.5,60.0,40.7,30533.0,13.6,11.0,44.0,,
281,251,Oregon State University,United States of America,30.6,42.8,28.5,63.8,32.1,22578.0,16.8,9.0,47.0,,
282,251,Osaka University,Japan,46.8,26.6,45.2,37.4,76.1,23144.0,7.8,9.0,31.0,,
283,251,Queen’s University,Canada,35.8,61.6,35.8,54.4,54.2,20488.0,22.1,10.0,58.0,,
284,251,Queensland University of Technology,Australia,28.8,76.0,35.6,56.0,73.7,33391.0,35.8,17.0,54.0,,
285,251,Rensselaer Polytechnic Institute,United States of America,30.4,40.3,31.5,65.1,79.6,6671.0,15.0,16.0,30.0,,
286,251,Royal College of Surgeons in Ireland,Republic of Ireland,29.9,90.1,20.1,65.3,33.9,2473.0,15.6,63.0,55.0,,
287,251,Ruhr University Bochum,Germany,32.8,51.7,30.0,54.4,66.6,38675.0,46.3,13.0,48.0,,
288,251,Saint Louis University,United States of America,36.9,26.6,10.9,85.0,29.9,11919.0,5.8,8.0,58.0,,
289,251,University of São Paulo,Brazil,59.1,25.3,57.1,20.4,30.5,81402.0,14.6,4.0,48.0,,
290,251,Simon Fraser University,Canada,23.2,61.4,29.2,72.8,42.3,26640.0,28.3,19.0,55.0,,
291,251,University of Surrey,United Kingdom,31.7,90.4,28.9,51.2,34.9,12063.0,16.6,38.0,55.0,,
292,251,Syracuse University,United States of America,31.4,38.3,20.8,77.1,36.3,19660.0,15.9,15.0,55.0,,
293,251,University of Tasmania,Australia,21.8,79.1,25.7,68.0,42.7,18340.0,23.8,21.0,57.0,,
294,251,"University of Tennessee, Knoxville",United States of America,29.5,39.3,23.2,81.4,41.3,24716.0,17.0,5.0,57.0,,
295,251,Tomsk Polytechnic University,Russian Federation,31.6,32.7,15.1,82.4,60.2,11902.0,6.9,17.0,39.0,,
296,251,Tulane University,United States of America,39.1,35.3,19.3,67.8,32.4,11381.0,8.4,8.0,56.0,,
297,251,Umeå University,Sweden,20.8,56.1,25.0,74.5,31.1,16667.0,11.9,7.0,60.0,,
298,251,Vienna University of Technology,Austria,34.1,77.3,32.0,54.6,86.5,26419.0,52.0,27.0,27.0,,
299,251,Virginia Polytechnic Institute and State University,United States of America,34.9,29.5,38.2,54.2,43.3,30850.0,18.6,10.0,42.0,,
300,251,University of Wollongong,Australia,25.8,86.8,28.4,59.3,57.9,16489.0,25.4,24.0,50.0,,
301,251,Zhejiang University,China,44.3,19.6,46.0,36.1,96.2,47508.0,15.9,5.0,41.0,,
302,301,Aberystwyth University,United Kingdom,21.6,72.2,18.9,67.2,31.3,9252.0,19.2,18.0,48.0,,
303,301,University of Alaska Fairbanks,United States of America,25.1,53.5,23.1,63.0,51.2,3837.0,8.2,7.0,53.0,,
304,301,Autonomous University of Madrid,Spain,35.6,48.6,30.9,46.9,33.0,28296.0,13.0,15.0,56.0,,
305,301,Bangor University,United Kingdom,22.6,81.3,22.1,65.4,31.0,9567.0,19.5,22.0,55.0,,
306,301,University of Bremen,Germany,30.9,50.0,32.7,50.0,46.0,18590.0,25.6,11.0,50.0,,
307,301,University of Cincinnati,United States of America,31.3,28.3,20.4,72.1,35.3,36108.0,15.7,6.0,54.0,,
308,301,University of Connecticut,United States of America,35.9,43.1,25.6,57.0,30.9,25742.0,13.0,11.0,51.0,,
309,301,Deakin University,Australia,22.4,76.9,21.9,66.8,30.0,32713.0,30.4,17.0,60.0,,
310,301,University of Essex,United Kingdom,33.9,93.7,33.3,38.6,28.9,12695.0,19.8,39.0,55.0,,
311,301,George Mason University,United States of America,29.6,36.9,21.2,64.9,29.1,26622.0,17.0,7.0,54.0,,
312,301,University of Greifswald,Germany,30.1,41.7,23.5,61.3,32.6,10931.0,24.0,6.0,55.0,,
313,301,Gwangju Institute of Science and Technology,South Korea,35.2,36.2,42.0,43.7,45.2,1394.0,9.6,8.0,25.0,,
314,301,University of Hohenheim,Germany,30.9,50.3,33.8,51.5,52.8,9163.0,41.2,13.0,56.0,,
315,301,University of Innsbruck,Austria,23.6,95.7,16.9,67.3,39.9,18209.0,16.9,39.0,54.0,,
316,301,Kazan Federal University,Russian Federation,21.9,25.5,12.3,87.5,42.4,23321.0,12.2,6.0,69.0,,
317,301,University of Kent,United Kingdom,24.6,87.2,19.1,60.9,28.8,17638.0,14.4,27.0,53.0,,
318,301,Leibniz University of Hanover,Germany,36.5,43.2,36.9,39.0,69.6,22401.0,62.7,12.0,41.0,,
319,301,Macquarie University,Australia,28.5,90.0,27.2,52.3,33.1,27930.0,20.0,44.0,55.0,,
320,301,Medical College of Wisconsin,United States of America,25.4,30.4,12.1,85.2,31.8,1211.0,0.6,5.0,48.0,,
321,301,University of Milan,Italy,30.5,37.7,24.2,64.8,40.9,58618.0,24.3,5.0,60.0,,
322,301,University of Milan-Bicocca,Italy,24.3,34.3,25.5,65.8,46.6,33370.0,72.5,5.0,60.0,,
323,301,Montpellier University,France,38.7,54.4,16.7,59.5,31.9,36731.0,18.4,14.0,51.0,,
324,301,Nagoya University,Japan,40.8,27.4,38.9,40.1,91.4,15529.0,7.9,10.0,29.0,,
325,301,University of Naples Federico II,Italy,24.7,21.1,14.8,81.3,47.4,83653.0,64.2,1.0,29.0,,
326,301,National Chiao Tung University,Taiwan,32.9,32.0,45.4,34.2,96.9,12646.0,16.6,5.0,27.0,,
327,301,National Research Nuclear University MePhI,Russian Federation,43.9,27.5,24.1,52.8,28.1,7801.0,7.3,7.0,29.0,,
328,301,National Taiwan University of Science and Technology (Taiwan Tech),Taiwan,31.7,30.5,43.1,39.1,92.2,7446.0,17.4,11.0,34.0,,
329,301,University of Navarra,Spain,31.9,52.6,20.8,57.5,63.5,11259.0,10.6,16.0,52.0,,
330,301,University of Nebraska-Lincoln,United States of America,30.1,45.8,30.2,53.5,35.6,21789.0,16.4,9.0,46.0,,
331,301,Örebro University,Sweden,18.3,39.4,10.4,87.8,29.8,8788.0,15.8,2.0,61.0,,
332,301,University of Oregon,United States of America,21.2,33.5,22.7,72.6,30.8,24418.0,20.2,11.0,52.0,,
333,301,University of Padua,Italy,25.7,37.9,22.6,74.6,32.6,62577.0,18.3,4.0,56.0,,
334,301,University of Pavia,Italy,25.0,40.5,22.5,65.1,69.4,22958.0,40.6,6.0,56.0,,
335,301,Plymouth University,United Kingdom,19.3,64.0,18.0,75.2,28.5,24121.0,25.9,13.0,52.0,,
336,301,Shanghai Jiao Tong University,China,37.8,27.5,45.2,34.0,92.9,38191.0,12.8,6.0,37.0,,
337,301,University of Southern Denmark,Denmark,19.2,71.8,14.7,79.7,28.0,22210.0,12.7,16.0,52.0,,
338,301,Stellenbosch University,South Africa,28.2,49.8,35.0,46.9,100.0,21849.0,23.0,8.0,53.0,,
339,301,University of Strasbourg,France,25.5,71.6,23.4,64.4,32.8,46208.0,17.8,21.0,58.0,,
340,301,Technical University of Dortmund,Germany,34.2,40.8,29.8,55.3,48.6,29143.0,88.9,10.0,47.0,,
341,301,Technion Israel Institute of Technology,Israel,30.8,61.9,33.3,52.1,28.8,13855.0,19.4,4.0,35.0,,
342,301,Toulouse 1 Capitole University,France,18.6,66.7,35.7,56.3,32.5,19011.0,43.8,19.0,59.0,,
343,301,University of Trieste,Italy,26.5,47.3,18.5,74.1,32.3,18135.0,25.8,9.0,56.0,,
344,301,University of Turin,Italy,27.4,38.8,22.3,67.5,54.2,67552.0,66.0,6.0,62.0,,
345,301,University of Turku,Finland,27.1,66.2,21.2,65.8,31.2,12326.0,14.6,5.0,61.0,,
346,301,Vrije Universiteit Brussel,Belgium,28.7,64.5,24.5,56.8,77.1,9020.0,17.1,16.0,55.0,,
347,301,VŠB - Technical University of Ostrava,Czech Republic,18.8,22.3,15.7,85.5,32.1,14991.0,23.9,5.0,49.0,,
348,301,Yonsei University,South Korea,37.2,41.5,34.1,39.4,75.9,24774.0,11.6,14.0,49.0,,
349,301,York University,Canada,30.2,58.2,30.8,49.1,33.2,48007.0,39.4,9.0,59.0,,
350,351,Bilkent University,Turkey,22.6,47.5,17.5,64.1,30.2,48007.0,39.4,9.0,59.0,,
351,351,"Binghamton University, State University of New York",United States of America,22.7,53.6,17.4,62.0,34.0,15799.0,23.3,14.0,48.0,,
352,351,University of Crete,Greece,18.6,47.0,19.2,73.6,34.5,14650.0,26.9,5.0,63.0,,
353,351,University of Cyprus,Cyprus,18.0,74.7,28.5,56.7,30.0,6880.0,22.9,8.0,69.0,,
354,351,Drexel University,United States of America,31.2,46.3,14.6,57.7,36.3,20713.0,10.8,18.0,48.0,,
355,351,University of Eastern Finland,Finland,24.8,46.1,20.7,65.1,33.3,10798.0,17.3,6.0,64.0,,
356,351,University of Florence,Italy,21.7,38.5,20.4,72.1,35.9,54290.0,17.2,7.0,59.0,,
357,351,University of St Gallen,Switzerland,25.8,97.6,11.2,53.5,41.8,6848.0,10.8,34.0,32.0,,
358,351,Graz University of Technology,Austria,26.0,69.3,15.8,52.9,77.2,7542.0,12.5,16.0,22.0,,
359,351,University of Guelph,Canada,28.0,53.6,34.2,44.4,47.4,21643.0,28.3,4.0,60.0,,
360,351,Hanyang University,South Korea,33.9,54.3,32.6,31.1,87.9,16729.0,10.4,19.0,60.0,,
361,351,Hong Kong Baptist University,Hong Kong,22.6,75.0,12.1,67.9,28.8,10441.0,11.0,25.0,61.0,,
362,351,University of Houston,United States of America,34.9,33.9,26.5,52.0,42.3,40325.0,43.7,9.0,50.0,,
363,351,Indian Institute of Technology Bombay,India,37.8,17.7,28.6,48.5,42.3,8327.0,14.9,1.0,16.0,,
364,351,Instituto Superior Técnico Lisboa,Portugal,22.2,43.7,25.0,59.8,38.8,11778.0,16.9,9.0,27.0,,
365,351,University of Jyväskylä,Finland,28.2,47.1,25.5,55.5,34.2,9703.0,15.2,5.0,62.0,,
366,351,La Trobe University,Australia,27.0,78.0,28.5,45.4,43.7,22037.0,29.0,27.0,63.0,,
367,351,Loughborough University,United Kingdom,31.2,72.9,32.2,41.3,36.6,13951.0,15.9,22.0,38.0,,
368,351,University of Manitoba,Canada,27.1,57.8,26.9,49.7,41.8,28576.0,27.8,11.0,55.0,,
369,351,University of Missouri,United States of America,31.2,31.0,21.0,60.2,31.1,29885.0,14.1,5.0,53.0,,
370,351,University of Modena and Reggio Emilia,Italy,18.7,34.2,15.6,72.9,32.3,19693.0,25.3,6.0,54.0,,
371,351,University of Montana,United States of America,30.8,21.5,13.6,65.5,31.0,12470.0,15.2,3.0,54.0,,
372,351,"National University of Ireland, Maynooth",Republic of Ireland,24.6,75.6,22.8,50.2,36.6,7653.0,28.0,11.0,55.0,,
373,351,University of Nebraska Medical Center,United States of America,37.0,37.7,13.3,64.4,33.6,2857.0,2.6,8.0,67.0,,
374,351,University of New Mexico,United States of America,25.6,28.6,15.4,74.5,37.0,2857.0,2.6,8.0,67.0,,
375,351,Norwegian University of Science and Technology,Norway,16.3,59.9,25.8,59.8,51.8,17381.0,13.9,9.0,46.0,,
376,351,University of Oulu,Finland,23.1,56.9,15.9,62.3,30.9,14056.0,8.5,6.0,49.0,,
377,351,Panthéon-Sorbonne University – Paris 1,France,53.2,47.6,47.6,6.8,28.3,42215.0,34.3,20.0,59.0,,
378,351,Polytechnic University of Turin,Italy,23.7,50.6,18.6,65.9,42.5,27709.0,19.6,16.0,29.0,,
379,351,University of Rome III,Italy,23.1,35.9,21.0,64.8,37.5,36353.0,61.2,5.0,59.0,,
380,351,Sabancı University,Turkey,22.3,42.7,32.3,52.8,70.0,2739.0,15.9,6.0,39.0,,
381,351,San Diego State University,United States of America,20.3,25.9,27.0,62.7,29.3,27420.0,31.7,5.0,57.0,,
382,351,University of South Australia,Australia,26.4,89.0,26.7,41.2,85.9,18971.0,26.2,32.0,59.0,,
383,351,University of South Carolina,United States of America,31.1,24.5,21.5,58.7,30.3,29336.0,16.3,1.0,55.0,,
384,351,University of South Dakota,United States of America,29.3,17.1,12.1,70.4,28.0,8003.0,17.1,2.0,61.0,,
385,351,State University of Campinas,Brazil,44.6,21.1,42.3,22.6,49.4,27095.0,15.3,3.0,48.0,,
386,351,University of Stirling,United Kingdom,22.6,77.7,23.5,59.1,30.4,7828.0,15.9,22.0,61.0,,
387,351,Sun Yat-sen University,China,31.9,37.0,24.6,45.7,79.4,51351.0,16.6,8.0,51.0,,
388,351,Swansea University,United Kingdom,22.2,72.4,23.8,58.2,32.7,12801.0,17.1,20.0,49.0,,
389,351,Swinburne University of Technology,Australia,21.5,84.8,20.2,53.4,32.2,20314.0,36.5,33.0,44.0,,
390,351,University of Tartu,Estonia,23.8,46.1,22.8,64.2,31.5,10269.0,13.0,3.0,66.0,,
391,351,Temple University,United States of America,34.0,28.6,18.2,58.3,41.6,33268.0,13.3,5.0,51.0,,
392,351,University of Texas at San Antonio,United States of America,18.1,29.6,16.6,74.9,28.6,27520.0,26.9,6.0,48.0,,
393,351,UiT The Arctic University of Norway,Norway,26.5,66.1,18.7,58.8,36.8,10398.0,12.2,10.0,60.0,,
394,351,Université Libre de Bruxelles,Belgium,26.1,84.5,28.3,47.9,39.1,23819.0,26.1,32.0,54.0,,
395,351,Lille 2 University – Health and Law,France,15.1,39.4,9.5,81.7,31.5,26894.0,38.5,8.0,58.0,,
396,351,University College Cork,Republic of Ireland,28.6,75.5,23.8,48.4,47.1,15805.0,22.3,15.0,55.0,,
397,351,Verona University,Italy,23.6,38.3,13.1,76.1,36.6,25250.0,19.7,7.0,65.0,,
398,351,Victoria University of Wellington,New Zealand,26.0,88.8,28.7,44.3,45.6,17142.0,21.1,21.0,55.0,,
399,351,Washington State University,United States of America,29.0,39.6,28.2,49.6,57.1,24550.0,18.3,7.0,50.0,,
400,351,Wayne State University,United States of America,31.9,29.6,14.2,65.3,41.7,23065.0,10.7,7.0,57.0,,
401,401,American University,United States of America,42.2,28.9,16.5,41.1,35.9,11604.0,12.0,12.0,60.0,,
402,401,Aston University,Unted Kingdom,18.4,92.5,20.4,51.9,34.6,11604.0,12.0,12.0,60.0,,
403,401,University of Aveiro,Portugal,24.8,45.9,26.5,43.6,40.1,10791.0,17.8,10.0,51.0,,
404,401,University of Bari Aldo Moro,Italy,28.7,31.7,21.6,48.8,45.4,51560.0,65.1,2.0,65.0,,
405,401,Bar-Ilan University,Israel,22.6,49.4,21.3,42.3,28.9,17503.0,16.0,5.0,59.0,,
406,401,Bournemouth University,United Kingdom,32.0,70.6,12.6,35.2,28.8,14907.0,25.9,18.0,53.0,,
407,401,University of Brescia,Italy,15.6,36.6,14.8,72.3,35.8,14076.0,25.0,7.0,48.0,,
408,401,Brno University of Technology,Czech Republic,18.0,35.8,14.7,55.8,33.7,23694.0,21.3,15.0,27.0,,
409,401,Brunel University London,United Kingdom,24.8,91.8,23.3,39.5,34.7,12613.0,17.6,38.0,46.0,,
410,401,Ca’ Foscari University of Venice,Italy,23.9,38.1,27.8,48.9,32.3,19267.0,38.3,7.0,66.0,,
411,401,University of Cagliari,Italy,19.4,32.6,13.2,56.8,33.6,30638.0,51.0,1.0,62.0,,
412,401,University of Canterbury,New Zealand,23.5,91.0,22.5,38.9,52.1,12187.0,16.5,20.0,51.0,,
413,401,Catholic University of the Sacred Heart,Italy,18.6,39.0,11.3,55.4,38.7,30304.0,18.9,10.0,51.0,,
414,401,Charles University in Prague,Czech Republic,31.5,52.8,21.5,41.0,28.2,51438.0,13.0,15.0,62.0,,
415,401,"China Medical University, Taiwan",Taiwan,24.0,25.7,29.4,45.0,60.4,7983.0,15.4,8.0,53.0,,
416,401,City University London,United Kingdom,23.5,89.6,21.2,43.5,28.9,13053.0,17.8,50.0,55.0,,
417,401,Claude Bernard University Lyon 1,France,21.3,50.5,13.2,66.5,34.5,35308.0,16.1,11.0,50.0,,
418,401,University of Coimbra,Portugal,28.3,46.2,26.5,42.4,34.8,22795.0,19.0,11.0,55.0,,
419,401,Complutense University of Madrid,Spain,33.2,39.1,27.6,31.2,30.9,86519.0,17.5,13.0,62.0,,
420,401,Concordia University,Canada,19.3,77.4,23.4,36.4,30.9,31017.0,30.3,27.0,50.0,,
421,401,Curtin University,Australia,20.1,93.1,20.2,44.6,37.8,30333.0,17.1,38.0,53.0,,
422,401,Dublin City University,Republic of Ireland,26.1,76.7,25.2,36.3,51.7,8546.0,22.9,17.0,51.0,,
423,401,East China University of Science and Technology,China,24.1,21.7,17.1,46.4,64.7,27140.0,15.5,5.0,51.0,,
424,401,Ewha Womans University,South Korea,23.9,34.3,18.3,50.4,57.6,17625.0,14.4,6.0,100.0,,
425,401,Federico Santa María Technical University,Chile,17.2,54.1,10.1,70.5,35.1,11718.0,34.0,2.0,24.0,,
426,401,University of Ferrara,Italy,17.7,41.8,17.2,63.3,35.9,18882.0,30.2,7.0,56.0,,
427,401,Florida International University,United States of America,25.7,32.8,18.1,49.4,32.7,32566.0,25.9,7.0,56.0,,
428,401,University of Genoa,Italy,27.2,38.8,14.2,59.3,42.3,37373.0,29.5,9.0,56.0,,
429,401,Georgia State University,United States of America,26.3,29.5,19.5,52.9,28.7,28534.0,20.4,5.0,59.0,,
430,401,University of Graz,Austria,24.9,68.9,16.3,53.3,29.3,20584.0,26.8,12.0,65.0,,
431,401,Heriot-Watt University,United Kingdom,23.4,90.1,22.4,36.4,45.6,8773.0,17.8,43.0,41.0,,
432,401,Hokkaido University,Japan,40.3,27.9,32.8,29.3,53.7,18162.0,8.2,9.0,29.0,,
433,401,Howard University,United States of America,38.8,30.3,11.0,44.5,53.7,10297.0,6.8,5.0,65.0,,
434,401,University of Hull,United Kingdom,22.4,73.2,16.1,41.1,31.8,15141.0,18.7,20.0,52.0,,
435,401,University of Idaho,United States of America,28.3,32.0,19.4,40.8,32.4,11641.0,21.5,6.0,47.0,,
436,401,Indian Institute of Technology Delhi,India,35.8,15.5,25.8,33.4,62.8,8371.0,17.3,1.0,18.0,,
437,401,Indian Institute of Technology Kharagpur,India,33.2,13.3,30.5,41.4,31.7,9928.0,17.5,0.0,15.0,,
438,401,Indian Institute of Technology Madras,India,34.6,16.1,20.7,31.4,88.9,8234.0,15.9,1.0,19.0,,
439,401,University of Ioannina,Greece,14.5,36.9,17.7,56.4,32.9,20825.0,36.3,4.0,58.0,,
440,401,Iran University of Science and Technology,Iran,25.9,12.2,26.0,42.3,61.2,10311.0,23.9,0.0,24.0,,
441,401,Johannes Kepler University of Linz,Austria,19.2,58.5,13.8,51.6,37.4,19646.0,29.1,10.0,48.0,,
442,401,University of Kaiserslautern,Germany,29.6,44.1,22.6,47.5,80.2,14184.0,54.4,14.0,36.0,,
443,401,Keele University,United Kingdom,20.0,72.7,17.6,53.0,29.3,8397.0,15.7,20.0,55.0,,
444,401,University of KwaZulu-Natal,South Africa,20.3,58.6,25.7,41.5,38.2,30572.0,24.9,6.0,58.0,,
445,401,Kyung Hee University,South Korea,26.1,46.4,27.6,39.2,89.4,24356.0,17.4,14.0,58.0,,
446,401,Kyushu University,Japan,36.5,26.4,27.5,31.8,83.2,18925.0,6.7,8.0,28.0,,
447,401,Lehigh University,United States of America,23.9,36.0,15.0,58.2,38.9,6300.0,11.3,15.0,44.0,,
448,401,Louisiana State University,United States of America,26.8,26.1,27.7,37.8,38.9,28116.0,20.1,6.0,52.0,,
449,401,University of Macau,Macau,18.5,98.4,17.0,49.7,34.9,8521.0,14.9,31.0,58.0,,
450,401,Makerere University,Uganda,15.1,58.0,10.6,70.7,28.0,37340.0,29.4,9.0,50.0,,
451,401,Marche Polytechnic University,Italy,15.2,27.3,11.0,80.2,28.0,16589.0,23.0,4.0,45.0,,
452,401,"University of Maryland, Baltimore County",United States of America,21.3,28.2,18.2,61.3,31.7,13908.0,18.1,7.0,46.0,,
453,401,Murdoch University,Australia,18.7,88.3,19.6,51.2,36.5,16606.0,32.8,43.0,59.0,,
454,401,University of Nantes,France,19.6,35.1,12.2,69.4,36.5,33866.0,22.2,11.0,56.0,,
455,401,National and Kapodistrian University of Athens,Greece,26.7,39.0,16.3,45.8,36.5,63052.0,32.3,9.0,61.0,,
456,401,National Autonomous University of Mexico,Mexico,42.7,35.9,40.2,14.8,63.7,137378.0,11.6,5.0,51.0,,
457,401,National Cheng Kung University,Taiwan,29.8,27.7,40.2,27.2,100.0,21234.0,14.4,11.0,36.0,,
458,401,National Institute of Applied Sciences of Lyon (INSA Lyon),France,27.0,63.6,10.6,41.8,40.3,6137.0,8.2,31.0,31.0,,
459,401,National Yang-Ming University,Taiwan,41.5,15.8,18.5,33.3,30.2,4496.0,5.4,2.0,48.0,,
460,401,University of Neuchâtel,Switzerland,24.2,91.4,14.7,48.2,30.2,4358.0,8.5,22.0,59.0,,
461,401,New University of Lisbon,Portugal,26.9,44.5,21.9,38.3,41.3,18867.0,17.9,7.0,49.0,,
462,401,University of Nice Sophia Antipolis,France,21.4,79.5,16.1,53.7,28.5,27304.0,20.3,22.0,56.0,,
463,401,Novosibirsk State University,Russian Federation,41.4,32.4,30.8,26.2,38.2,7131.0,7.1,13.0,52.0,,
464,401,The Open University,United Kingdom,21.0,51.5,13.8,60.3,28.4,76683.0,35.9,9.0,61.0,,
465,401,Oxford Brookes University,United Kingdom,25.7,68.9,18.8,42.7,28.4,14238.0,18.5,25.0,57.0,,
466,401,University of Palermo,Italy,15.3,23.6,9.1,77.4,28.0,43875.0,22.4,1.0,60.0,,
467,401,University of Parma,Italy,17.7,36.8,16.6,56.4,37.1,26937.0,29.1,7.0,56.0,,
468,401,University of Pisa,Italy,21.6,31.1,18.9,64.5,31.4,47247.0,18.0,4.0,52.0,,
469,401,Polytechnic University of Catalonia,Spain,25.2,63.9,14.8,44.7,40.9,22893.0,11.7,28.0,12.0,,
470,401,Pontifical Catholic University of Chile,Chile,28.2,52.4,21.3,37.0,28.0,25075.0,15.3,7.0,12.0,,
471,401,University of Porto,Portugal,32.0,45.4,28.2,37.2,38.7,32720.0,18.8,9.0,54.0,,
472,401,University of Portsmouth,United Kingdom,17.2,79.3,10.9,58.2,28.9,20161.0,19.1,23.0,45.0,,
473,401,RMIT University,Australia,24.7,82.1,17.7,44.6,37.0,29501.0,18.1,25.0,47.0,,
474,401,University of Rome II – Tor Vergata,Italy,23.5,36.5,17.2,64.5,34.7,33504.0,26.5,6.0,52.0,,
475,401,University of Rovira i Virgili,Spain,20.8,41.5,14.8,66.9,30.9,12533.0,12.8,9.0,61.0,,
476,401,Saint Petersburg State University,Russian Federation,47.9,33.0,31.4,14.5,29.5,20836.0,5.2,7.0,60.0,,
477,401,University of Salento,Italy,29.6,24.5,13.2,53.0,36.2,19959.0,58.4,1.0,64.0,,
478,401,University of San Francisco,United States of America,34.2,40.1,12.9,43.8,28.6,10788.0,17.0,17.0,63.0,,
479,401,University of Saskatchewan,Canada,30.8,52.9,22.4,39.7,62.9,19028.0,16.3,14.0,57.0,,
480,401,Sharif University of Technology,Iran,26.6,15.9,30.1,33.7,87.8,10977.0,18.7,0.0,27.0,,
481,401,University of Siena,Italy,23.7,39.0,17.8,45.2,33.2,18846.0,23.6,5.0,59.0,,
482,401,Southern Cross University,Australia,18.9,52.7,18.3,53.3,37.7,9026.0,32.8,15.0,66.0,,
483,401,State University of New York Albany,United States of America,25.6,31.4,35.3,35.5,28.0,15387.0,18.5,8.0,51.0,,
484,401,University of Strathclyde,United Kingdom,25.9,71.0,28.0,31.8,44.1,15705.0,20.2,20.0,50.0,,
485,401,University of Tampere,Finland,23.5,41.9,13.7,63.7,40.0,10045.0,9.5,4.0,66.0,,
486,401,Tampere University of Technology,Finland,23.1,54.0,17.2,45.5,67.5,6147.0,15.5,13.0,23.0,,
487,401,Tokyo Medical and Dental University (TMDU),Japan,39.3,23.1,18.3,36.6,59.5,2872.0,3.3,7.0,51.0,,
488,401,Tokyo Metropolitan University,Japan,21.6,19.9,11.4,72.2,30.9,9303.0,9.9,4.0,35.0,,
489,401,University of Tsukuba,Japan,40.0,34.4,30.0,33.7,42.9,15930.0,12.6,16.0,38.0,,
490,401,University of Ulsan,South Korea,19.5,18.6,20.5,54.0,64.7,14037.0,13.3,3.0,38.0,,
491,401,Ulster University,United Kingdom,19.1,79.0,13.2,44.1,29.2,19622.0,15.8,15.0,55.0,,
492,401,Université du Québec à Montréal,Canada,26.8,42.9,24.5,41.6,29.2,27046.0,24.7,9.0,61.0,,
493,401,Universiti Teknologi Malaysia,Malaysia,26.3,51.7,14.6,44.7,31.1,16270.0,9.0,13.0,43.0,,
494,401,University of Urbino Carlo Bo,Italy,17.2,35.0,8.7,66.8,31.2,13435.0,37.4,7.0,61.0,,
495,401,University of Valencia,Spain,22.7,40.5,16.9,49.6,31.3,58413.0,15.4,9.0,60.0,,
496,401,University of Waikato,New Zealand,19.3,87.0,18.2,53.7,30.7,10159.0,17.0,25.0,57.0,,
497,401,Western Sydney University,Australia,20.1,54.0,24.6,52.3,30.7,30704.0,32.2,9.0,56.0,,
498,401,Wuhan University,China,38.2,36.7,26.8,18.0,97.8,46227.0,14.4,7.0,56.0,,
499,401,Xiamen University,China,26.7,25.0,15.6,47.0,97.8,32921.0,12.3,5.0,52.0,,
500,501,American University of Beirut,Lebanon,27.7,93.0,11.2,31.9,97.8,7695.0,8.9,25.0,51.0,,
501,501,Amirkabir University of Technology,Iran,24.5,7.7,25.7,34.8,55.7,14080.0,25.6,1.0,34.0,,
502,501,"University of the Andes, Colombia",Colombia,21.2,51.7,13.8,31.2,28.0,15773.0,16.9,2.0,44.0,,
503,501,University of Arkansas,United States of America,25.5,25.9,17.4,30.3,36.9,22819.0,21.2,5.0,50.0,,
504,501,Auburn University,United States of America,30.2,27.9,19.4,21.0,37.2,22386.0,17.6,4.0,51.0,,
505,501,Babeş-Bolyai University,Romania,27.9,35.4,12.5,32.1,28.6,37915.0,23.5,2.0,67.0,,
506,501,University of the Basque Country,Spain,18.2,34.9,11.9,43.1,30.3,46373.0,15.3,5.0,53.0,,
507,501,Bauman Moscow State Technical University,Russian Federation,44.0,15.6,23.7,3.1,68.1,18808.0,4.0,4.0,23.0,,
508,501,Ben-Gurion University of the Negev,Israel,25.1,52.9,21.3,30.1,28.7,16695.0,12.6,2.0,49.0,,
509,501,Blaise Pascal University,France,20.2,66.6,2.9,46.9,28.7,15619.0,7.1,17.0,55.0,,
510,501,Boğaziçi University,Turkey,21.2,38.3,17.2,45.4,35.5,11506.0,25.0,7.0,50.0,,
511,501,University of Burgundy,France,21.4,50.9,8.8,46.3,35.5,26612.0,20.8,11.0,54.0,,
512,501,University of Canberra,Australia,18.4,54.6,19.3,29.8,36.2,11221.0,28.6,24.0,54.0,,
513,501,Carleton University,Canada,19.9,61.3,24.0,32.0,30.4,25036.0,29.8,18.0,47.0,,
514,501,University of Catania,Italy,19.2,25.3,15.9,52.9,29.5,55859.0,49.7,1.0,61.0,,
515,501,Central Queensland University,Australia,20.9,50.8,11.4,43.7,32.5,11452.0,29.6,27.0,59.0,,
516,501,University of Chile,Chile,28.3,44.1,19.6,30.5,32.5,29207.0,14.2,3.0,47.0,,
517,501,China Agricultural University,China,35.8,17.6,24.9,22.6,52.3,19342.0,12.0,1.0,57.0,,
518,501,Chung-Ang University,South Korea,29.9,43.7,27.6,17.4,61.3,13015.0,17.4,17.0,45.0,,
519,501,Czech Technical University in Prague,Czech Republic,20.6,25.0,9.3,46.5,28.2,22751.0,12.0,17.0,45.0,,
520,501,De Montfort University,United Kingdom,16.8,58.4,10.1,40.1,28.5,16812.0,19.1,21.0,57.0,,
521,501,East China Normal University,China,24.6,30.6,14.7,43.3,42.0,29623.0,14.0,11.0,63.0,,
522,501,Edith Cowan University,Australia,18.9,68.7,16.1,35.0,34.5,27491.0,16.1,16.0,61.0,,
523,501,Federal University of Rio de Janeiro,Brazil,32.4,25.1,19.7,18.3,42.9,52878.0,12.8,2.0,54.0,,
524,501,University of Granada,Spain,24.3,36.4,14.7,45.8,29.4,53476.0,16.0,6.0,56.0,,
525,501,University of Haifa,Israel,25.5,34.7,29.5,26.2,30.3,17758.0,30.8,1.0,65.0,,
526,501,Harbin Institute of Technology,China,29.4,25.6,27.3,15.7,99.8,31658.0,10.8,7.0,29.0,,
527,501,University of Hertfordshire,United Kingdom,15.5,78.9,9.5,50.5,29.3,19665.0,19.4,27.0,54.0,,
528,501,Hiroshima University,Japan,27.8,22.2,18.9,41.7,42.2,14686.0,8.2,5.0,36.0,,
529,501,Huazhong University of Science and Technology,China,29.3,17.3,22.7,31.6,71.8,57242.0,17.7,4.0,34.0,,
530,501,Indian Institute of Technology Guwahati,India,24.3,12.9,20.7,42.6,32.3,4710.0,14.2,1.0,14.0,,
531,501,Indian Institute of Technology Kanpur,India,33.1,16.4,15.0,31.5,28.0,6167.0,12.2,0.0,13.0,,
532,501,Indian Institute of Technology Roorkee,India,29.7,13.9,17.5,37.2,81.4,8061.0,18.7,1.0,17.0,,
533,501,Isfahan University of Technology,Iran,18.1,17.2,23.0,39.5,99.5,10964.0,26.5,1.0,39.0,,
534,501,Istanbul Technical University,Turkey,19.2,22.9,25.8,26.5,72.1,34550.0,16.0,5.0,34.0,,
535,501,Jadavpur University,India,32.8,7.7,22.2,31.8,33.8,10697.0,16.1,0.0,30.0,,
536,501,Kanazawa University,Japan,24.7,18.4,14.8,35.5,30.4,10546.0,10.4,5.0,36.0,,
537,501,Kansas State University,United States of America,22.9,41.7,17.5,39.3,43.1,21379.0,15.1,10.0,50.0,,
538,501,Keio University,Japan,25.0,22.7,17.5,28.5,41.4,33751.0,11.9,5.0,32.0,,
539,501,Kent State University,United States of America,18.4,32.4,14.2,53.8,28.5,23122.0,19.0,8.0,58.0,,
540,501,King Fahd University of Petroleum and Minerals,Saudi Arabia,25.4,84.5,16.1,24.4,81.2,6898.0,7.1,20.0,58.0,,
541,501,King Saud University,Saudi Arabia,20.0,75.5,17.5,22.3,57.4,40666.0,13.4,7.0,58.0,,
542,501,University of La Laguna,Spain,16.9,44.7,10.0,44.8,28.5,22422.0,14.9,5.0,58.0,,
543,501,Lappeenranta University of Technology,Finland,27.1,53.0,27.5,20.8,80.3,3486.0,23.9,19.0,31.0,,
544,501,University of Limerick,Republic of Ireland,19.8,76.5,16.3,36.6,34.0,12212.0,19.8,13.0,46.0,,
545,501,University of Lisbon,Portugal,25.9,46.6,18.3,32.4,35.4,47849.0,17.5,9.0,51.0,,
546,501,Liverpool John Moores University,United Kingdom,16.4,62.1,11.6,45.9,28.8,18513.0,19.8,13.0,52.0,,
547,501,Mahidol University,Thailand,26.8,44.1,15.1,28.3,71.6,27402.0,7.5,3.0,63.0,,
548,501,Manchester Metropolitan University,United Kingdom,22.7,57.8,10.6,30.8,28.3,28037.0,18.2,14.0,57.0,,
549,501,University of Maribor,Slovenia,17.1,33.6,11.5,42.1,38.7,14531.0,17.3,4.0,57.0,,
550,501,Masaryk University,Czech Republic,21.2,48.9,22.9,27.8,28.5,40898.0,26.6,17.0,62.0,,
551,501,Massey University,New Zealand,23.1,80.5,17.1,31.9,35.8,19101.0,16.8,15.0,62.0,,
552,501,Memorial University of Newfoundland,Canada,18.1,53.3,15.8,35.6,48.3,15464.0,14.6,10.0,59.0,,
553,501,Middle East Technical University,Turkey,29.9,26.7,17.3,28.8,60.0,25779.0,22.2,7.0,44.0,,
554,501,University of Minho,Portugal,23.9,43.6,20.1,35.3,51.6,19090.0,18.8,9.0,52.0,,
555,501,Missouri University of Science and Technology,United States of America,23.5,40.6,18.4,28.7,52.8,7647.0,15.5,12.0,23.0,,
556,501,Montana State University,United States of America,17.7,23.5,21.8,48.0,43.0,12331.0,17.8,4.0,46.0,,
557,501,Monterrey Institute of Technology and Higher Education,Mexico,23.9,59.6,12.7,23.4,75.8,14353.0,20.5,12.0,40.0,,
558,501,National Central University,Taiwan,26.3,27.1,23.2,17.5,75.3,10915.0,9.8,6.0,31.0,,
559,501,National Sun Yat-Sen University,Taiwan,26.1,19.7,33.0,25.8,44.3,9336.0,19.6,4.0,37.0,,
560,501,National Taiwan Normal University,Taiwan,26.2,38.1,31.3,16.2,81.9,11072.0,13.0,19.0,57.0,,
561,501,National Technical University of Athens,Greece,20.2,31.3,15.0,36.2,40.3,14780.0,26.9,7.0,36.0,,
562,501,New Jersey Institute of Technology,United States of America,18.9,48.5,16.6,32.2,32.2,10646.0,26.2,17.0,25.0,,
563,501,New Mexico State University,United States of America,19.5,30.5,19.2,47.2,34.6,15035.0,18.8,7.0,54.0,,
564,501,University of North Carolina at Greensboro,United States of America,18.2,17.4,15.3,43.1,28.9,16446.0,19.2,2.0,66.0,,
565,501,Oklahoma State University,United States of America,27.5,25.6,22.7,33.1,33.7,21270.0,21.4,7.0,49.0,,
566,501,Osaka City University,Japan,26.3,21.3,13.4,34.4,40.7,8604.0,10.1,4.0,36.0,,
567,501,Otto von Guericke University of Magdeburg,Germany,22.9,43.9,14.4,39.7,37.7,14104.0,13.1,13.0,42.0,,
568,501,University of Oviedo,Spain,19.5,36.2,10.8,41.9,34.1,24210.0,13.7,5.0,54.0,,
569,501,Palacký University in Olomouc,Czech Republic,19.2,48.8,11.8,42.9,28.7,18540.0,11.4,9.0,70.0,,
570,501,Panjab University,India,24.6,14.1,8.8,41.0,28.1,16691.0,23.9,1.0,46.0,,
571,501,Paris Dauphine University,France,21.9,69.3,11.1,27.6,30.6,9565.0,15.4,28.0,53.0,,
572,501,Pontifical Catholic University of Rio de Janeiro (PUC-Rio),Brazil,24.5,31.3,24.1,23.1,100.0,14300.0,21.2,3.0,49.0,,
573,501,Portland State University,United States of America,16.8,31.6,14.4,43.3,44.6,20398.0,22.2,8.0,54.0,,
574,501,University of Pretoria,South Africa,25.6,46.0,21.2,17.5,52.4,37314.0,20.0,8.0,57.0,,
575,501,Pusan National University,South Korea,27.5,32.9,24.7,20.4,66.8,24929.0,19.7,12.0,51.0,,
576,501,Quaid-i-azam University,Pakistan,17.9,35.4,9.9,45.6,66.8,12688.0,25.7,0.0,53.0,,
577,501,University of Regina,Canada,15.6,47.7,15.8,34.2,34.4,11550.0,22.8,12.0,61.0,,
578,501,Renmin University of China,China,34.7,40.1,13.7,30.7,42.5,24954.0,12.7,6.0,61.0,,
579,501,University of Rennes 1,France,17.8,53.0,10.3,44.7,31.7,22186.0,13.9,12.0,50.0,,
580,501,University of Salamanca,Spain,26.1,40.8,16.9,25.9,31.6,31035.0,17.9,12.0,58.0,,
581,501,University of Santiago de Compostela,Spain,22.9,37.1,14.1,46.9,32.3,29085.0,15.3,6.0,63.0,,
582,501,Semmelweis University,Hungary,19.6,81.7,10.6,41.5,30.7,12920.0,10.9,25.0,64.0,,
583,501,University of Seville,Spain,21.5,32.0,14.9,32.6,36.7,64931.0,17.5,7.0,55.0,,
584,501,Université de Sherbrooke,Canada,25.6,39.8,9.5,41.3,29.6,13438.0,5.4,5.0,54.0,,
585,501,Soochow University,China,19.2,16.0,13.7,45.8,75.3,36465.0,12.9,2.0,78.0,,
586,501,South China University of Technology,China,19.5,17.5,22.1,28.1,86.8,41438.0,17.7,3.0,33.0,,
587,501,Tallinn University of Technology,Estonia,16.3,37.9,15.0,38.7,44.8,14061.0,28.6,5.0,44.0,,
588,501,Tehran University of Medical Sciences,Iran,51.8,14.1,20.0,9.3,30.0,13912.0,9.0,1.0,62.0,,
589,501,University of Texas at Arlington,United States of America,20.1,50.3,10.1,50.9,33.4,29396.0,10.5,10.0,60.0,,
590,501,Tianjin University,China,36.5,14.7,34.4,12.2,100.0,29693.0,12.2,1.0,60.0,,
591,501,Tokyo University of Agriculture and Technology,Japan,34.9,19.4,24.1,16.9,39.9,5865.0,14.4,5.0,27.0,,
592,501,University of Toledo,United States of America,31.6,37.7,13.4,29.9,32.9,19465.0,17.5,9.0,50.0,,
593,501,Tongji University,China,28.9,37.2,29.2,13.1,63.5,37394.0,13.5,10.0,38.0,,
594,501,University of Tulsa,United States of America,29.7,43.8,12.9,24.6,71.7,4597.0,12.5,25.0,43.0,,
595,501,United Arab Emirates University,United Arab Emirates,18.8,95.0,14.8,21.7,30.1,9221.0,12.5,26.0,76.0,,
596,501,University of Warsaw,Poland,26.1,41.6,15.8,42.2,28.5,49292.0,14.1,7.0,67.0,,
597,501,University of Wisconsin-Milwaukee,United States of America,17.3,26.0,13.8,45.5,29.0,22542.0,18.4,5.0,52.0,,
598,501,Xi’an Jiaotong University,China,28.7,25.8,22.5,25.5,70.4,29863.0,12.3,4.0,34.0,,
599,501,University of Zaragoza,Spain,20.1,33.5,12.7,49.5,36.7,31046.0,11.8,5.0,55.0,,
600,601,University of A Coruña,Spain,18.3,23.4,10.0,16.6,38.2,17062.0,13.0,2.0,52.0,,
601,601,Adam Mickiewicz University,Poland,20.0,25.7,11.0,15.3,28.7,40633.0,15.6,1.0,71.0,,
602,601,AGH University of Science and Technology,Poland,14.2,17.9,3.7,35.7,28.7,35569.0,17.0,1.0,71.0,,
603,601,Ajou University,South Korea,19.5,20.0,11.9,23.9,45.7,12706.0,11.3,2.0,33.0,,
604,601,University of Alcalá,Spain,17.6,50.0,11.2,28.3,43.3,30812.0,25.1,18.0,53.0,,
605,601,Alexandria University,Egypt,20.3,33.7,8.2,14.1,29.7,127431.0,23.3,1.0,46.0,,
606,601,Alexandru Ioan Cuza University,Romania,24.9,46.9,13.6,7.0,28.2,25724.0,33.0,5.0,63.0,,
607,601,Aligarh Muslim University,India,28.3,18.7,10.0,20.9,29.6,11197.0,10.5,2.0,17.0,,
608,601,American University of Sharjah,United Arab Emirates,12.4,95.6,10.6,13.3,33.3,5226.0,14.1,82.0,48.0,,
609,601,Amrita University,India,20.4,29.6,5.8,20.7,28.0,17273.0,6.6,8.0,48.0,,
610,601,Anadolu University,Turkey,12.2,14.3,22.6,10.9,100.0,379231.0,162.6,1.0,78.0,,
611,601,Andhra University,India,34.8,7.2,6.9,1.2,31.3,10407.0,20.2,3.0,36.0,,
612,601,University of Antioquia,Colombia,18.1,42.0,21.1,14.8,43.6,38872.0,23.0,1.0,50.0,,
613,601,Aristotle University of Thessaloniki,Greece,22.6,36.6,15.0,29.5,33.6,46288.0,22.2,9.0,52.0,,
614,601,"Asia University, Taiwan",Taiwan,14.4,18.3,15.9,30.5,38.4,12119.0,26.3,3.0,53.0,,
615,601,Athens University of Economics and Business,Greece,13.4,39.2,18.8,31.2,66.5,13167.0,57.5,6.0,47.0,,
616,601,Auckland University of Technology,New Zealand,17.3,95.6,9.8,21.7,28.5,18981.0,18.1,38.0,58.0,,
617,601,Austral University of Chile,Chile,16.7,45.2,9.7,14.2,41.1,13794.0,17.8,1.0,47.0,,
618,601,Beijing Institute of Technology,China,25.9,16.9,21.7,9.1,87.6,13794.0,17.8,1.0,47.0,,
619,601,Belarusian State University,Belarus,20.2,48.2,8.7,6.0,28.0,29303.0,10.6,6.0,69.0,,
620,601,University of Belgrade,Serbia,20.4,30.5,13.2,14.0,45.6,96968.0,28.3,5.0,60.0,,
621,601,"Birla Institute of Technology and Science, Pilani",India,18.3,13.7,8.3,17.4,29.6,11837.0,19.5,0.0,22.0,,
622,601,University of Bradford,United Kingdom,18.7,79.1,15.9,22.7,32.7,11065.0,20.5,32.0,53.0,,
623,601,University of Brasília,Brazil,21.9,24.1,7.4,10.4,32.7,45880.0,14.5,2.0,52.0,,
624,601,University of Brighton,United Kingdom,16.7,62.8,10.7,20.1,29.4,16924.0,19.5,19.0,58.0,,
625,601,University of Bucharest,Romania,34.3,21.3,11.5,9.9,29.5,31806.0,24.9,2.0,70.0,,
626,601,Budapest University of Technology and Economics,Hungary,17.1,30.4,13.7,21.6,39.7,22447.0,22.1,4.0,32.0,,
627,601,Cairo University,Egypt,18.9,31.0,11.1,11.9,30.3,231941.0,39.1,3.0,47.0,,
628,601,University of Calcutta,India,34.7,13.1,8.7,19.8,29.2,18511.0,32.5,0.0,47.0,,
629,601,"California State University, Long Beach",United States of America,11.6,18.9,10.4,23.3,29.2,29594.0,32.3,5.0,58.0,,
630,601,Capital Medical University,China,26.3,18.8,14.9,16.3,28.8,11506.0,7.1,3.0,70.0,,
631,601,University of Castilla-La Mancha,Spain,18.4,28.6,10.3,30.5,29.7,26381.0,14.3,3.0,56.0,,
632,601,University of Central Lancashire,United Kingdom,15.7,54.1,9.4,28.2,28.9,18542.0,17.5,17.0,57.0,,
633,601,University of Cergy-Pontoise,France,18.7,49.1,6.3,13.2,28.6,17000.0,9.2,11.0,53.0,,
634,601,Chang Gung University,Taiwan,19.3,15.7,24.7,27.6,31.9,7506.0,12.6,0.0,42.0,,
635,601,Carlos III University of Madrid,Spain,23.2,44.7,17.4,24.8,34.8,15730.0,11.4,9.0,43.0,,
636,601,"University of Chemistry and Technology, Prague",Czech Republic,21.6,46.3,12.0,17.4,38.9,4699.0,11.0,19.0,43.0,,
637,601,Chiang Mai University,Thailand,17.8,34.9,9.4,30.0,32.3,35617.0,16.5,1.0,19.0,,
638,601,Chiba University,Japan,26.9,21.0,16.8,24.8,55.3,14554.0,12.3,5.0,37.0,,
639,601,China University of Geosciences (Wuhan),China,21.1,16.1,21.4,21.5,64.5,29483.0,20.7,3.0,37.0,,
640,601,China University of Petroleum (Beijing),China,23.6,15.9,26.6,4.0,100.0,14579.0,19.4,6.0,37.0,,
641,601,Chonbuk National University,South Korea,19.7,27.2,14.7,24.5,33.3,23270.0,15.0,3.0,45.0,,
642,601,Chongqing University,China,19.5,15.5,15.5,8.7,73.8,43955.0,16.0,3.0,45.0,,
643,601,Chonnam National University,South Korea,17.5,20.4,11.7,29.1,31.4,35779.0,18.5,3.0,41.0,,
644,601,Chulalongkorn University,Thailand,23.8,32.8,14.1,16.7,37.8,38719.0,14.5,2.0,59.0,,
645,601,Chung Yuan Christian University,Taiwan,15.9,18.7,22.1,17.4,41.9,15020.0,30.2,3.0,41.0,,
646,601,Chungnam National University,South Korea,23.2,19.8,17.7,13.2,39.9,18361.0,17.2,3.0,41.0,,
647,601,Clemson University,United States of America,21.4,34.6,19.7,27.0,35.8,19198.0,17.1,8.0,46.0,,
648,601,Comenius University in Bratislava,Slovakia,23.0,46.9,10.3,19.6,28.0,20879.0,9.7,10.0,54.0,,
649,601,Coventry University,United Kingdom,17.1,69.6,7.7,18.4,29.1,21934.0,14.8,35.0,47.0,,
650,601,Dalian University of Technology,China,22.6,20.7,19.0,23.5,93.3,34326.0,15.2,2.0,33.0,,
651,601,University of Debrecen,Hungary,17.3,49.0,11.4,20.9,93.3,29714.0,20.3,13.0,57.0,,
652,601,University of Delhi,India,29.8,15.4,10.8,19.1,28.2,32567.0,22.9,1.0,50.0,,
653,601,University of Dhaka,Bangladesh,21.7,37.2,7.2,9.6,28.2,62716.0,6.9,5.0,34.0,,
654,601,Dublin Institute of Technology,Republic of Ireland,16.1,70.5,8.8,20.7,28.1,13839.0,18.9,25.0,41.0,,
655,601,Ehime University,Japan,19.2,20.9,11.3,17.5,37.8,8394.0,9.9,1.0,39.0,,
656,601,University of Electronic Science and Technology of China,China,20.5,13.4,12.9,8.8,28.0,21689.0,9.8,0.0,21.0,,
657,601,Eötvös Loránd University,Hungary,21.3,43.0,12.1,30.6,29.3,28698.0,22.4,4.0,21.0,,
658,601,Erciyes University,Turkey,15.5,17.2,10.9,18.0,30.3,28079.0,28.0,2.0,46.0,,
659,601,Federal University of Bahia,Brazil,18.2,19.7,8.1,14.3,30.3,39861.0,17.9,1.0,47.0,,
660,601,Federal University of Minas Gerais,Brazil,27.9,21.6,15.4,23.1,30.7,42612.0,13.5,1.0,55.0,,
661,601,Federal University of Paraná (UFPR),Brazil,24.6,15.5,9.6,7.0,30.7,21850.0,11.2,1.0,55.0,,
662,601,Federal University of Rio Grande do Sul,Brazil,32.6,18.9,13.7,16.8,30.7,38743.0,14.8,1.0,50.0,,
663,601,Federal University of Santa Catarina,Brazil,26.0,21.0,12.2,14.2,42.9,26078.0,12.6,1.0,48.0,,
664,601,Federal University of São Carlos,Brazil,29.0,16.8,10.8,11.5,42.9,18587.0,16.9,0.0,48.0,,
665,601,Federal University of Viçosa,Brazil,39.7,15.0,14.5,3.9,59.0,13163.0,11.4,3.0,70.0,,
666,601,Federal University of Lavras,Brazil,25.8,14.5,16.4,3.0,59.0,10350.0,20.9,2.0,53.0,,
667,601,Feng Chia University,Taiwan,14.6,21.1,13.7,34.4,33.9,20213.0,23.9,7.0,36.0,,
668,601,Florida Institute of Technology,United States of America,20.4,62.4,13.5,24.6,33.4,4408.0,13.7,26.0,34.0,,
669,601,Fu Jen Catholic University,Taiwan,14.4,19.1,9.8,18.2,47.0,25951.0,22.8,4.0,59.0,,
670,601,Gdańsk University of Technology,Poland,15.5,16.1,9.5,15.2,36.8,25217.0,23.3,1.0,39.0,,
671,601,University of Ghana,Ghana,15.6,48.4,15.6,19.5,36.8,37274.0,37.5,2.0,41.0,,
672,601,Gifu University,Japan,25.4,18.5,16.9,14.7,32.8,7318.0,12.4,4.0,35.0,,
673,601,Glasgow Caledonian University,United Kingdom,17.1,55.0,10.4,24.2,29.9,13527.0,21.6,16.0,60.0,,
674,601,University of Greenwich,United Kingdom,15.7,81.8,9.5,17.7,30.0,18096.0,24.6,32.0,53.0,,
675,601,Hacettepe University,Turkey,21.0,19.6,11.8,19.7,28.2,39606.0,20.4,4.0,56.0,,
676,601,University of Huddersfield,United Kingdom,17.4,55.2,5.4,16.5,28.0,15436.0,18.1,25.0,54.0,,
677,601,Hunan University,China,18.3,14.8,15.0,21.2,46.7,42756.0,24.7,2.0,43.0,,
678,601,University of Ibadan,Nigeria,22.7,26.1,11.1,4.6,29.2,26247.0,17.1,1.0,45.0,,
679,601,University of Indonesia,Indonesia,18.1,37.2,8.0,13.9,40.0,43565.0,15.8,0.0,51.0,,
680,601,Inha University,South Korea,20.7,23.5,20.0,22.5,64.7,20353.0,24.1,3.0,36.0,,
681,601,I-Shou University,Taiwan,12.8,24.8,11.5,13.3,41.0,16263.0,29.9,10.0,45.0,,
682,601,Istanbul University,Turkey,26.0,20.0,23.3,10.0,100.0,82096.0,41.1,6.0,44.0,,
683,601,Jagiellonian University,Poland,24.0,33.5,14.4,30.7,28.0,42835.0,11.5,5.0,67.0,,
684,601,Jilin University,China,28.2,20.3,14.4,14.6,42.1,65605.0,13.6,3.0,46.0,,
685,601,University of Jordan,Jordan,19.0,53.7,7.7,7.8,28.8,35577.0,13.6,13.0,67.0,,
686,601,Jordan University of Science and Technology,Jordan,16.4,62.2,6.2,16.4,31.4,24686.0,16.4,23.0,55.0,,
687,601,Juntendo University,Japan,32.3,16.7,10.5,24.0,51.1,3955.0,3.7,1.0,52.0,,
688,601,K.N. Toosi University of Technology,Iran,20.9,7.1,18.1,22.5,45.5,7146.0,24.6,0.0,32.0,,
689,601,Kaohsiung Medical University,Taiwan,20.6,19.9,22.2,20.5,33.2,7009.0,12.6,5.0,56.0,,
690,601,Khon Kaen University,Thailand,18.2,31.5,7.4,19.9,35.7,39669.0,16.9,1.0,62.0,,
691,601,King Mongkut’s University of Technology Thonburi,Thailand,18.2,28.5,11.4,36.2,70.3,17791.0,23.7,1.0,42.0,,
692,601,Kingston University,United Kingdom,16.9,76.8,12.1,26.7,28.5,20778.0,20.9,34.0,53.0,,
693,601,Kinki University,Japan,18.5,17.0,7.9,30.0,33.2,31216.0,11.6,2.0,53.0,,
694,601,Kobe University,Japan,27.8,21.1,15.4,24.3,45.1,15885.0,8.4,6.0,33.0,,
695,601,Konkuk University,South Korea,20.0,22.6,19.6,17.0,36.0,26483.0,23.5,6.0,47.0,,
696,601,Kumamoto University,Japan,23.4,22.2,11.6,28.1,43.1,10226.0,7.6,5.0,37.0,,
697,601,Kyungpook National University,South Korea,21.1,21.7,16.0,18.1,34.9,27152.0,14.4,4.0,42.0,,
698,601,Kyushu Institute of Technology,Japan,19.4,20.7,12.5,14.2,44.1,5890.0,12.1,4.0,11.0,,
699,601,University of Latvia,Latvia,22.6,31.5,10.2,20.9,28.3,15100.0,26.5,3.0,68.0,,
700,601,Lille 1 University – Science and Technology,France,20.0,60.3,8.6,32.4,31.8,19599.0,14.5,18.0,41.0,,
701,601,University of Lincoln,United Kingdom,17.9,60.5,11.9,26.4,29.3,10665.0,18.9,11.0,54.0,,
702,601,University of Ljubljana,Slovenia,24.9,34.5,13.6,24.0,32.3,48821.0,17.6,4.0,60.0,,
703,601,University of Marrakech Cadi Ayyad,Morocco,17.4,42.7,6.3,12.1,29.2,56060.0,38.7,1.0,46.0,,
704,601,Miami University,United States of America,19.2,24.8,15.7,36.1,30.2,16370.0,20.5,7.0,53.0,,
705,601,Middlesex University,United Kingdom,18.5,81.0,10.6,25.7,30.2,17753.0,24.7,44.0,59.0,,
706,601,Moscow Institute of Physics and Technology,Russian Federation,34.3,44.4,16.3,15.5,28.0,5395.0,7.0,12.0,59.0,,
707,601,University of Murcia,Spain,19.3,28.3,11.7,28.0,29.5,31460.0,15.8,6.0,62.0,,
708,601,Nagasaki University,Japan,22.8,21.9,10.8,14.3,29.5,9137.0,7.2,4.0,36.0,,
709,601,University of Nairobi,Kenya,13.7,45.5,9.0,19.5,28.0,72676.0,47.0,1.0,40.0,,
710,601,National Chengchi University,Taiwan,18.4,33.1,12.5,14.0,31.3,16867.0,18.4,10.0,57.0,,
711,601,National Chung Cheng University,Taiwan,21.3,14.2,20.3,15.7,40.8,11989.0,22.9,1.0,57.0,,
712,601,National Chung Hsing University,Taiwan,20.2,16.9,16.8,24.5,42.5,15632.0,20.3,4.0,39.0,,
713,601,National Taipei University of Technology,Taiwan,17.8,16.0,14.6,16.4,81.3,10227.0,16.5,3.0,25.0,,
714,601,National Taiwan Ocean University,Taiwan,18.1,20.3,21.0,18.2,49.3,8240.0,20.9,5.0,30.0,,
715,601,National University of Córdoba,Argentina,16.0,28.1,9.0,12.5,28.6,108373.0,38.1,2.0,62.0,,
716,601,National University of Science and Technology (MISiS),Russian Federation,24.8,33.7,17.5,10.8,67.2,4441.0,6.7,13.0,43.0,,
717,601,National University of Sciences and Technology,Pakistan,21.4,31.3,7.0,35.0,31.3,9808.0,7.8,3.0,27.0,,
718,601,Niigata University,Japan,21.9,19.3,10.1,17.5,33.0,12460.0,8.5,3.0,37.0,,
719,601,Northumbria University,United Kingdom,17.7,55.1,10.9,29.2,29.1,22750.0,19.3,16.0,55.0,,
720,601,Northwestern Polytechnical University,China,23.4,15.2,15.4,3.5,28.0,23056.0,14.1,3.0,25.0,,
721,601,Nottingham Trent University,United Kingdom,16.5,52.7,8.9,27.3,28.4,21852.0,17.4,18.0,55.0,,
722,601,Oakland University,United States of America,18.1,23.3,11.9,21.9,30.3,14584.0,19.8,2.0,60.0,,
723,601,Ocean University of China,China,18.9,15.6,10.7,12.9,50.1,36205.0,20.6,1.0,40.0,,
724,601,Ohio University,United States of America,25.0,33.6,14.9,24.6,30.1,22224.0,20.0,10.0,50.0,,
725,601,Okayama University,Japan,24.3,20.6,14.9,25.3,48.0,13035.0,8.6,3.0,38.0,,
726,601,Osaka Prefecture University,Japan,21.6,17.6,10.2,17.5,41.5,8051.0,7.5,3.0,36.0,,
727,601,University of Pardubice,Czech Republic,15.9,23.4,11.9,11.1,28.3,10671.0,19.8,4.0,55.0,,
728,601,University of Paris North – Paris 13,France,17.5,46.4,11.6,36.2,28.0,23026.0,23.4,22.0,60.0,,
729,601,Paris-Sorbonne University – Paris 4,France,31.1,44.2,21.3,7.1,28.5,21580.0,27.4,21.0,69.0,,
730,601,University of Patras,Greece,18.5,30.6,12.1,28.8,48.3,29251.0,40.9,4.0,46.0,,
731,601,University of Pécs,Hungary,19.7,50.8,9.0,23.4,28.4,21819.0,15.4,10.0,46.0,,
732,601,Polytechnic University of Valencia,Spain,20.3,32.9,12.7,34.3,43.8,33172.0,13.6,7.0,36.0,,
733,601,Pontifical Catholic University of Paraná,Brazil,18.4,18.6,6.5,32.2,28.0,7741.0,10.9,2.0,1.0,,
734,601,Pontifical Catholic University of Rio Grande do Sul (PUCRS),Brazil,21.1,18.7,10.9,27.6,52.3,14797.0,10.1,0.0,50.0,,
735,601,Pontifical Catholic University of Valparaíso,Chile,18.4,35.7,8.0,10.4,44.3,13493.0,10.4,0.0,45.0,,
736,601,Prince of Songkla University,Thailand,15.3,31.0,7.0,22.2,31.6,38274.0,16.1,1.0,69.0,,
737,601,Qatar University,Qatar,9.9,99.9,10.3,22.3,55.2,9583.0,19.0,42.0,74.0,,
738,601,Rio de Janeiro State University (UERJ),Brazil,21.7,16.8,9.1,12.3,30.8,28757.0,10.1,0.0,46.0,,
739,601,Rochester Institute of Technology,United States of America,17.4,29.8,13.4,25.1,30.4,12965.0,13.5,13.0,34.0,,
740,601,Saitama University,Japan,18.6,20.6,9.6,23.4,29.6,7469.0,11.7,2.0,33.0,,
741,601,University of Salford,United Kingdom,20.8,66.4,12.1,21.2,28.8,16152.0,17.0,25.0,51.0,,
742,601,"University of Santiago, Chile (USACH)",Chile,17.6,40.4,11.3,10.2,31.0,22739.0,23.6,1.0,39.0,,
743,601,São Paulo State University (UNESP),Brazil,28.0,18.7,22.6,6.7,40.1,50594.0,13.0,5.0,52.0,,
744,601,Savitribai Phule Pune University,India,38.3,17.3,12.4,11.4,29.3,4858.0,14.6,3.0,25.0,,
745,601,University of Science and Technology Beijing,China,25.1,15.6,22.4,6.9,89.7,22780.0,15.1,4.0,36.0,,
746,601,Sejong University,South Korea,18.9,25.2,12.2,38.7,35.4,11704.0,15.5,3.0,43.0,,
747,601,University of Seoul,South Korea,22.8,18.7,17.5,21.4,28.9,10243.0,19.0,3.0,36.0,,
748,601,Shahid Beheshti University,Iran,20.5,13.8,19.0,11.4,58.9,17800.0,24.9,1.0,52.0,,
749,601,Shanghai University,China,19.1,15.8,16.1,14.8,45.7,46044.0,17.5,3.0,48.0,,
750,601,Shantou University,China,17.6,30.7,9.1,28.3,30.7,9593.0,13.5,0.0,48.0,,
751,601,Sheffield Hallam University,United Kingdom,17.3,47.0,9.4,20.1,28.6,27477.0,18.8,15.0,53.0,,
752,601,Shinshu University,Japan,20.8,20.3,8.3,22.0,31.6,11232.0,9.6,3.0,53.0,,
753,601,Showa University,Japan,28.5,14.0,7.9,7.0,31.6,3675.0,2.5,0.0,57.0,,
754,601,Sichuan University,China,25.0,15.7,18.4,16.1,90.8,65035.0,14.5,2.0,48.0,,
755,601,University of Silesia in Katowice,Poland,17.7,18.5,8.0,20.4,28.1,32764.0,17.3,1.0,65.0,,
756,601,Slovak University of Technology in Bratislava,Slovakia,23.3,30.6,8.6,24.9,33.2,16400.0,15.3,2.0,31.0,,
757,601,Sogang University,South Korea,21.5,27.7,24.8,20.5,46.8,10625.0,24.1,7.0,43.0,,
758,601,Sophia University,Japan,22.0,32.8,9.4,5.3,29.5,12799.0,24.3,8.0,53.0,,
759,601,University of South Africa,South Africa,18.4,28.7,11.3,9.4,28.8,197102.0,108.5,9.0,65.0,,
760,601,Southern Federal University,Russian Federation,21.9,17.3,8.2,9.2,39.5,27556.0,9.0,3.0,56.0,,
761,601,University of Southern Mississippi,United States of America,21.0,20.8,11.8,20.1,39.9,14569.0,18.5,3.0,63.0,,
762,601,University of Southern Queensland,Australia,18.4,63.0,13.1,14.4,28.8,13761.0,29.2,21.0,55.0,,
763,601,Suez Canal University,Egypt,22.6,31.6,5.9,16.0,28.8,16817.0,6.0,21.0,65.0,,
764,601,Sultan Qaboos University,Oman,21.3,71.5,10.6,16.0,37.6,7089.0,9.0,3.0,50.0,,
765,601,Suranaree University of Technology,Thailand,21.1,25.9,11.6,18.4,38.1,12650.0,32.9,1.0,50.0,,
766,601,University of Szeged,Hungary,20.0,46.9,10.5,20.5,33.2,22684.0,13.8,9.0,58.0,,
767,601,Taipei Medical University,Taiwan,25.7,26.5,21.7,19.0,42.2,6001.0,11.1,6.0,58.0,,
768,601,Taras Shevchenko National University of Kyiv,Ukraine,27.9,28.2,11.0,4.2,28.0,22686.0,8.2,2.0,45.0,,
769,601,Technical University of Madrid,Spain,21.8,39.5,14.6,24.5,38.3,41500.0,13.8,11.0,32.0,,
770,601,University of Tehran,Iran,26.1,16.5,16.9,15.8,38.3,53802.0,27.0,1.0,45.0,,
771,601,University of Texas at El Paso,United States of America,18.6,30.4,18.7,18.4,38.3,19123.0,29.0,7.0,54.0,,
772,601,Texas Tech University,United States of America,27.9,36.8,17.2,22.0,38.3,29512.0,20.9,7.0,46.0,,
773,601,Tokai University,Japan,17.9,19.3,7.6,15.3,34.4,29700.0,12.7,1.0,27.0,,
774,601,Tokushima University,Japan,25.3,16.8,21.6,12.8,59.6,7519.0,8.9,3.0,34.0,,
775,601,Tokyo University of Marine Science and Technology,Japan,27.9,24.5,12.4,7.7,57.9,2597.0,11.1,7.0,34.0,,
776,601,Tokyo University of Science,Japan,23.0,15.4,24.1,21.4,37.6,20243.0,25.7,2.0,20.0,,
777,601,Tomsk State University,Russian Federation,34.8,36.9,20.8,7.6,44.0,10413.0,9.9,12.0,60.0,,
778,601,Tottori University,Japan,24.3,16.7,10.1,9.6,34.5,6248.0,8.2,2.0,34.0,,
779,601,Toyohashi University of Technology,Japan,22.0,25.4,18.9,15.8,50.3,2153.0,9.3,9.0,9.0,,
780,601,Universiti Kebangsaan Malaysia,Malaysia,24.3,29.7,15.9,10.9,28.4,24227.0,11.8,12.0,62.0,,
781,601,Universiti Putra Malaysia,Malaysia,25.3,50.1,20.9,10.2,34.2,23883.0,12.2,16.0,63.0,,
782,601,Universiti Sains Malaysia,Malaysia,26.9,44.2,16.6,12.4,34.4,28179.0,14.8,10.0,61.0,,
783,601,Universiti Teknologi MARA,Malaysia,15.2,14.8,7.7,18.2,28.3,69268.0,16.8,0.0,65.0,,
784,601,Ural Federal University,Russian Federation,24.8,17.3,10.6,16.8,35.6,28427.0,10.1,3.0,48.0,,
785,601,V.N. Karazin Kharkiv National University,Ukraine,21.7,48.4,8.9,1.7,28.8,14410.0,9.7,22.0,53.0,,
786,601,University of Vigo,Spain,18.4,30.7,10.5,31.8,38.1,22793.0,19.0,3.0,51.0,,
787,601,Vilnius University,Lithuania,18.3,40.8,13.6,26.1,41.0,19019.0,14.2,4.0,65.0,,
788,601,Warsaw University of Technology,Poland,19.4,20.7,8.5,40.3,47.4,34572.0,14.5,3.0,34.0,,
789,601,Waseda University,Japan,23.6,29.7,14.6,29.4,32.4,52316.0,16.9,8.0,35.0,,
790,601,University of West Bohemia,Czech Republic,16.3,23.1,9.7,29.8,32.1,15639.0,21.5,2.0,52.0,,
791,601,University of the West of England,United Kingdom,16.9,48.5,11.2,34.6,28.5,22525.0,21.4,15.0,53.0,,
792,601,West University of Timişoara,Romania,16.1,21.0,3.9,22.4,28.5,12933.0,19.0,3.0,62.0,,
793,601,University of Westminster,United Kingdom,17.3,81.9,11.7,21.1,28.5,16609.0,21.0,43.0,57.0,,
794,601,Xidian University,China,17.9,12.8,12.1,8.9,83.7,31618.0,16.4,2.0,29.0,,
795,601,Yeungnam University,South Korea,18.6,24.3,10.9,26.5,35.4,21958.0,15.3,3.0,48.0,,
796,601,Yıldız Technical University,Turkey,14.5,14.9,7.6,19.3,44.0,31268.0,28.7,2.0,36.0,,
797,601,Yokohama City University,Japan,24.0,16.1,10.2,36.4,37.9,4122.0,3.7,3.0,36.0,,
798,601,Yokohama National University,Japan,20.1,23.3,16.0,13.5,40.4,10117.0,12.1,8.0,28.0,,
799,601,Yuan Ze University,Taiwan,16.2,17.7,18.3,28.6,39.8,8663.0,20.6,4.0,43.0,,
